idx,STATE,COUNTYNAME,FIPS,LON,LAT
0,ME,Washington,23029,-67.6361,45.0363
1,GA,McIntosh,13191,-81.2646,31.5329
2,GA,Liberty,13179,-81.2103,31.7093
3,AS,Swains Island,60040,-171.0459,-11.0843
4,AS,Manu'a,60020,-169.506,-14.2219
5,AS,Western,60050,-170.7691,-14.3241
6,AS,Eastern,60010,-170.6596,-14.2763
7,PR,Anasco,72011,-67.1221,18.287
8,PR,Arroyo,72015,-66.0563,17.9982
9,PR,Barceloneta,72017,-66.5605,18.4454
10,PR,Barranquitas,72019,-66.3099,18.2017
11,PR,Bayamon,72021,-66.1684,18.3497
12,PR,Caguas,72025,-66.0508,18.2119
13,PR,Canovanas,72029,-65.8879,18.3288
14,PR,Cayey,72035,-66.1495,18.1029
15,PR,Ceiba,72037,-65.6678,18.2526
16,PR,Ciales,72039,-66.5164,18.2889
17,PR,Cidra,72041,-66.1611,18.1737
18,PR,Coamo,72043,-66.3601,18.0972
19,PR,Comerio,72045,-66.2219,18.2248
20,PR,Corozal,72047,-66.3279,18.3043
21,PR,Florida,72054,-66.5601,18.3735
22,PR,Guanica,72055,-66.9198,17.9827
23,PR,Guayama,72057,-66.1336,18.0077
24,PR,Guayanilla,72059,-66.7916,18.0406
25,PR,Guaynabo,72061,-66.1145,18.3442
26,PR,Gurabo,72063,-65.9791,18.2663
27,PR,Hatillo,72065,-66.7964,18.4106
28,PR,Hormigueros,72067,-67.114,18.1341
29,PR,Mayaguez,72097,-67.337,18.1716
30,PR,Naguabo,72103,-65.7542,18.2306
31,PR,Jayuya,72073,-66.5885,18.2106
32,PR,Juana Diaz,72075,-66.4951,18.0507
33,PR,Juncos,72077,-65.9089,18.2236
34,PR,Lajas,72079,-67.0404,18.0123
35,PR,Lares,72081,-66.8669,18.2689
36,PR,Las Piedras,72085,-65.8693,18.1876
37,PR,Manati,72091,-66.4902,18.4204
38,PR,Maricao,72093,-66.9424,18.1721
39,PR,Maunabo,72095,-65.9219,18.018
40,PR,Moca,72099,-67.0808,18.3779
41,PR,Morovis,72101,-66.4202,18.3171
42,PR,Naranjito,72105,-66.2526,18.2884
43,PR,Orocovis,72107,-66.4339,18.2149
44,PR,Patillas,72109,-66.0122,18.0317
45,PR,Penuelas,72111,-66.7211,18.0608
46,PR,Ponce,72113,-66.6141,18.0597
47,PR,Sabana Grande,72121,-66.9435,18.083
48,PR,Salinas,72123,-66.2564,18.0115
49,PR,San German,72125,-67.0385,18.1111
50,PR,San Juan,72127,-66.0607,18.3864
51,PR,San Lorenzo,72129,-65.9764,18.148
52,PR,Santa Isabel,72133,-66.3889,17.995
53,PR,Trujillo Alto,72139,-65.9992,18.3362
54,PR,Utuado,72141,-66.7024,18.271
55,PR,Vega Alta,72143,-66.3372,18.4093
56,PR,Villalba,72149,-66.4729,18.128
57,PR,Yabucoa,72151,-65.8965,18.0706
58,PR,Yauco,72153,-66.8586,18.0801
59,PR,San Sebastian,72131,-66.9712,18.3288
60,PR,Adjuntas,72001,-66.7542,18.1798
61,PR,Aguas Buenas,72007,-66.1268,18.2517
62,PR,Aibonito,72009,-66.2644,18.1311
63,VI,Saint Croix,78010,-64.7677,17.7333
64,PR,Arecibo,72013,-66.6752,18.4068
65,PR,Las Marias,72083,-66.9835,18.2371
66,PR,Rincon,72117,-67.2414,18.3374
67,PR,Aguadilla,72005,-67.1207,18.4597
68,PR,Isabela,72071,-67.0052,18.4499
69,PR,Camuy,72027,-66.8602,18.4188
70,PR,Dorado,72051,-66.2787,18.4365
71,PR,Toa Alta,72135,-66.2464,18.3626
72,PR,Aguada,72003,-67.1748,18.3603
73,PR,Culebra,72049,-65.2877,18.3159
74,PR,Cabo Rojo,72023,-67.1537,18.0415
75,PR,Fajardo,72053,-65.6686,18.3176
76,PR,Vieques,72147,-65.4414,18.1231
77,PR,Carolina,72031,-65.9567,18.3742
78,VI,Saint Thomas,78030,-64.9302,18.3453
79,PR,Quebradillas,72115,-66.926,18.4397
80,PR,Catano,72033,-66.144,18.4374
81,PR,Luquillo,72089,-65.7249,18.3422
82,PR,Humacao,72069,-65.8105,18.1452
83,VI,Saint John,78020,-64.7385,18.339
84,PR,Rio Grande,72119,-65.8202,18.3553
85,PR,Loiza,72087,-65.9247,18.434
86,GU,Guam,66010,144.7749,13.4419
87,GU,Northern Islands,69085,145.6922,17.9725
88,GU,Saipan,69110,145.7523,15.1889
89,GU,Rota,69100,145.2127,14.1558
90,GU,Tinian,69120,145.6241,15.0014
91,CT,Hartford,09003,-72.7328,41.8064
92,CT,Tolland,09013,-72.3365,41.855
93,CT,Windham,09015,-71.9875,41.8299
94,MA,Nantucket,25019,-70.0744,41.2781
95,MD,Garrett,24023,-79.2739,39.5286
96,VT,Windsor,50027,-72.5855,43.5798
97,NH,Sullivan,33019,-72.2223,43.3612
98,NH,Belknap,33001,-71.4233,43.5188
99,NH,Cheshire,33005,-72.2512,42.9193
100,NH,Strafford,33017,-71.0293,43.2975
101,NY,Yates,36123,-77.1055,42.6335
102,NY,Allegany,36003,-78.0276,42.2574
103,NY,Broome,36007,-75.8196,42.1602
104,NY,Cattaraugus,36009,-78.6789,42.2486
105,NY,Chemung,36015,-76.76,42.1413
106,NY,Chenango,36017,-75.6115,42.4936
107,NY,Cortland,36023,-76.0702,42.595
108,NY,Delaware,36025,-74.9664,42.1982
109,NY,Genesee,36037,-78.1936,43.001
110,NY,Hamilton,36041,-74.4974,43.6611
111,NY,Lewis,36049,-75.4488,43.7847
112,NY,Livingston,36051,-77.7754,42.728
113,NY,Madison,36053,-75.6697,42.9129
114,NY,Montgomery,36057,-74.4397,42.9023
115,NY,Onondaga,36067,-76.1946,43.0058
116,NY,Ontario,36069,-77.2998,42.8529
117,NY,Orange,36071,-74.3056,41.4022
118,NY,Otsego,36077,-75.0326,42.6338
119,NY,Putnam,36079,-73.7495,41.4267
120,NY,Rockland,36087,-74.0241,41.1529
121,NY,Schoharie,36095,-74.4421,42.5882
122,NY,Schuyler,36097,-76.8752,42.3938
123,NY,Seneca,36099,-76.8237,42.781
124,NY,Steuben,36101,-77.3838,42.2678
125,NY,Sullivan,36105,-74.7681,41.7164
126,NY,Tioga,36107,-76.3063,42.1703
127,NY,Tompkins,36109,-76.4737,42.452
128,NY,Wyoming,36121,-78.2245,42.7023
129,PA,Adams,42001,-77.2179,39.8715
130,PA,Allegheny,42003,-79.9812,40.4688
131,PA,Armstrong,42005,-79.4645,40.8125
132,PA,Beaver,42007,-80.3493,40.6823
133,PA,Bedford,42009,-78.4902,40.0066
134,PA,Blair,42013,-78.3486,40.4813
135,PA,Bradford,42015,-76.5157,41.7886
136,PA,Butler,42019,-79.913,40.9117
137,PA,Cambria,42021,-78.7136,40.4954
138,PA,Cameron,42023,-78.2038,41.4368
139,PA,Clarion,42031,-79.421,41.1925
140,PA,Clearfield,42033,-78.4741,41.0002
141,PA,Columbia,42037,-76.4052,41.0486
142,PA,Crawford,42039,-80.1063,41.6848
143,PA,Cumberland,42041,-77.2651,40.1637
144,PA,Dauphin,42043,-76.7793,40.4155
145,PA,Elk,42047,-78.6492,41.4252
146,PA,Forest,42053,-79.2361,41.5132
147,PA,Franklin,42055,-77.7212,39.9275
148,PA,Fulton,42057,-78.1124,39.9255
149,PA,Greene,42059,-80.2229,39.8538
150,PA,Huntingdon,42061,-77.9812,40.417
151,PA,Indiana,42063,-79.0875,40.6521
152,PA,Jefferson,42065,-78.9995,41.1281
153,PA,Juniata,42067,-77.402,40.5311
154,PA,Lackawanna,42069,-75.6092,41.437
155,PA,Lancaster,42071,-76.2477,40.0424
156,PA,Lawrence,42073,-80.3342,40.9912
157,PA,Lebanon,42075,-76.4577,40.3672
158,PA,Luzerne,42079,-75.9889,41.1771
159,PA,McKean,42083,-78.569,41.8078
160,PA,Mercer,42085,-80.2577,41.3022
161,PA,Mifflin,42087,-77.6171,40.6104
162,PA,Montour,42093,-76.6586,41.028
163,PA,Perry,42099,-77.2622,40.3984
164,PA,Pike,42103,-75.0338,41.3321
165,PA,Potter,42105,-77.8958,41.745
166,PA,Schuylkill,42107,-76.216,40.7059
167,PA,Snyder,42109,-77.0701,40.77
168,PA,Somerset,42111,-79.0283,39.9725
169,PA,Sullivan,42113,-76.5119,41.446
170,PA,Susquehanna,42115,-75.8008,41.8214
171,PA,Tioga,42117,-77.2543,41.7721
172,PA,Union,42119,-77.0621,40.963
173,PA,Venango,42121,-79.758,41.401
174,PA,Warren,42123,-79.2741,41.8147
175,PA,Washington,42125,-80.2482,40.1894
176,PA,Wyoming,42131,-76.0165,41.5184
177,PA,York,42133,-76.7265,39.9199
178,RI,Newport,44005,-71.2366,41.556
179,VA,Patrick,51141,-80.2843,36.6784
180,VA,Pittsylvania,51143,-79.3971,36.8213
181,VA,Pulaski,51155,-80.7143,37.0636
182,VA,Roanoke,51161,-80.0679,37.2693
183,VA,Rockbridge,51163,-79.4475,37.8146
184,VA,Russell,51167,-82.0956,36.9338
185,VA,Scott,51169,-82.603,36.7142
186,VA,Smyth,51173,-81.537,36.8439
187,VA,Tazewell,51185,-81.5606,37.125
188,VA,Washington,51191,-81.9596,36.7245
189,VA,Wise,51195,-82.6212,36.9752
190,VA,Wythe,51197,-81.0786,36.9171
191,VA,Alleghany,51005,-80.007,37.7876
192,VA,Carroll,51035,-80.7339,36.7316
193,VA,Campbell,51031,-79.0963,37.2056
194,VA,Henry,51089,-79.8739,36.6828
195,VA,Montgomery,51121,-80.3869,37.174
196,VA,Halifax,51083,-78.9367,36.767
197,VA,Grayson,51077,-81.225,36.6566
198,VA,Giles,51071,-80.7037,37.3141
199,VA,Franklin,51067,-79.881,36.9919
200,VA,Floyd,51063,-80.3626,36.9315
201,VA,Dickenson,51051,-82.3503,37.1258
202,VA,Craig,51045,-80.2123,37.4813
203,VA,Charlotte,51037,-78.6616,37.0116
204,VA,Buckingham,51029,-78.5287,37.5722
205,VA,Buchanan,51027,-82.036,37.2666
206,VA,Botetourt,51023,-79.8123,37.5571
207,VA,Bland,51021,-81.1302,37.134
208,VA,Bedford,51019,-79.5242,37.3152
209,VA,Bath,51017,-79.7411,38.0587
210,VA,Appomattox,51011,-78.8121,37.3722
211,VA,Amherst,51009,-79.1451,37.6048
212,VA,Lee,51105,-83.1285,36.7055
213,VT,Lamoille,50015,-72.6414,44.6057
214,VT,Orange,50017,-72.3769,44.0056
215,VT,Bennington,50003,-73.0929,43.0355
216,VT,Orleans,50019,-72.2438,44.8288
217,VT,Washington,50023,-72.6149,44.2734
218,VT,Grand Isle,50013,-73.2948,44.7968
219,WV,Raleigh,54081,-81.2486,37.7714
220,WV,Putnam,54079,-81.909,38.5086
221,WV,Preston,54077,-79.6681,39.4693
222,WV,Pocahontas,54075,-80.0077,38.3318
223,WV,Pleasants,54073,-81.1606,39.3709
224,WV,Ohio,54069,-80.6189,40.0969
225,WV,Nicholas,54067,-80.7993,38.2917
226,WV,Monroe,54063,-80.5505,37.5604
227,WV,Monongalia,54061,-80.0465,39.6303
228,WV,Mingo,54059,-82.1346,37.7264
229,WV,Mercer,54055,-81.1114,37.4055
230,WV,Mason,54053,-82.0265,38.7697
231,WV,Marshall,54051,-80.6634,39.8606
232,WV,Marion,54049,-80.2434,39.51
233,WV,McDowell,54047,-81.6536,37.3785
234,WV,Logan,54045,-81.9353,37.8316
235,WV,Lincoln,54043,-82.0705,38.1753
236,WV,Kanawha,54039,-81.5281,38.3365
237,WV,Jackson,54035,-81.6748,38.8344
238,WV,Hancock,54029,-80.5739,40.5213
239,WV,Greenbrier,54025,-80.4529,37.9469
240,WV,Randolph,54083,-79.8758,38.7748
241,WV,Gilmer,54021,-80.8571,38.9241
242,WV,Fayette,54019,-81.0811,38.0288
243,WV,Clay,54015,-81.0751,38.4626
244,WV,Calhoun,54013,-81.1175,38.8445
245,WV,Cabell,54011,-82.2417,38.4203
246,WV,Brooke,54009,-80.5765,40.2733
247,WV,Braxton,54007,-80.7193,38.6998
248,WV,Boone,54005,-81.7113,38.0231
249,WV,Wetzel,54103,-80.6391,39.6053
250,WV,Wirt,54105,-81.3786,39.0224
251,WV,Wood,54107,-81.515,39.2111
252,WV,Wyoming,54109,-81.5491,37.6096
253,WV,Barbour,54001,-80.003,39.1329
254,WV,Taylor,54091,-80.0461,39.336
255,WV,Webster,54101,-80.4219,38.4947
256,WV,Wayne,54099,-82.427,38.1461
257,WV,Upshur,54097,-80.2334,38.8978
258,WV,Tyler,54095,-80.8849,39.4653
259,WV,Tucker,54093,-79.565,39.1136
260,WV,Summers,54089,-80.8586,37.6559
261,WV,Roane,54087,-81.3483,38.714
262,WV,Ritchie,54085,-81.0629,39.1783
263,PA,Northumberland,42097,-76.7091,40.852
264,ME,Androscoggin,23001,-70.2045,44.1654
265,NJ,Hudson,34017,-74.0825,40.7068
266,NY,Richmond,36085,-74.1557,40.5802
267,NJ,Essex,34013,-74.1293,40.69
268,NY,Richmond,36085,-74.1343,40.6435
269,NJ,Hudson,34017,-74.0778,40.7409
270,NJ,Bergen,34003,-73.9344,40.9001
271,NY,Westchester,36119,-73.8998,40.9601
272,NY,Bronx,36005,-73.8669,40.8527
273,NY,New York,36061,-73.9689,40.7786
274,NY,Bronx,36005,-73.8707,40.825
275,RI,Bristol,44001,-71.2842,41.7161
276,MA,Dukes,25007,-70.6561,41.3966
277,NY,Niagara,36063,-78.7427,43.2011
278,NY,Wayne,36117,-77.0292,43.1566
279,NY,Oswego,36075,-76.1412,43.4261
280,NY,Orleans,36073,-78.2312,43.2522
281,NY,Monroe,36055,-77.6958,43.1464
282,ME,Knox,23013,-69.173,44.15
283,ME,Sagadahoc,23023,-69.8613,43.9705
284,ME,Lincoln,23015,-69.5431,44.0752
285,NH,Merrimack,33013,-71.6802,43.2977
286,NJ,Union,34039,-74.1597,40.6572
287,PA,Fayette,42051,-79.6474,39.9198
288,PA,Westmoreland,42129,-79.4668,40.3107
289,MA,Middlesex,25017,-71.3918,42.4855
290,CT,New Haven,09009,-72.9324,41.4108
291,CT,Litchfield,09005,-73.2453,41.7925
292,MA,Worcester,25027,-71.9077,42.3514
293,MA,Berkshire,25003,-73.2064,42.3706
294,MA,Franklin,25011,-72.5919,42.5831
295,MA,Hampshire,25015,-72.6638,42.3401
296,MA,Norfolk,25021,-71.2248,42.155
297,ME,Piscataquis,23021,-69.2835,45.838
298,ME,Somerset,23025,-69.9582,45.5138
299,ME,Aroostook,23003,-68.5988,46.6588
300,ME,Oxford,23017,-70.7555,44.499
301,ME,Penobscot,23019,-68.6494,45.4006
302,NH,Carroll,33003,-71.2028,43.8739
303,NH,Hillsborough,33011,-71.716,42.9153
304,NJ,Passaic,34031,-74.3003,41.0337
305,NY,Westchester,36119,-73.7553,41.1643
306,NY,Washington,36115,-73.4307,43.3137
307,NY,Warren,36113,-73.846,43.561
308,NY,Fulton,36035,-74.4222,43.1139
309,NY,Essex,36031,-73.7727,44.1172
310,NY,Clinton,36019,-73.6781,44.7462
311,NY,Franklin,36033,-74.3038,44.5929
312,NY,Cayuga,36011,-76.5543,42.9169
313,NY,Oneida,36065,-75.4359,43.2418
314,NY,Herkimer,36043,-74.9626,43.4196
315,NY,Schenectady,36093,-74.0585,42.8182
316,NY,Albany,36001,-73.9735,42.6002
317,NY,Greene,36039,-74.1227,42.2766
318,NY,Ulster,36111,-74.2585,41.8881
319,NY,Dutchess,36027,-73.7428,41.7652
320,NY,Columbia,36021,-73.6318,42.2501
321,NY,Rensselaer,36083,-73.5097,42.7111
322,NY,Saratoga,36091,-73.8639,43.1074
323,NY,St. Lawrence,36089,-75.0625,44.4921
324,PA,Centre,42027,-77.8196,40.919
325,PA,Lycoming,42081,-77.0645,41.3433
326,PA,Wayne,42127,-75.3033,41.6487
327,PA,Erie,42049,-80.0322,41.9917
328,PA,Clinton,42035,-77.6385,41.2341
329,RI,Providence,44007,-71.5811,41.8724
330,RI,Washington,44009,-71.6234,41.4687
331,VT,Chittenden,50007,-73.0809,44.4609
332,VT,Addison,50001,-73.1407,44.0306
333,VT,Rutland,50021,-73.0366,43.5801
334,VT,Windham,50025,-72.7138,42.9906
335,VT,Franklin,50011,-72.912,44.8574
336,MA,Essex,25009,-70.9581,42.6729
337,MA,Plymouth,25023,-70.8129,41.9547
338,MA,Hampden,25013,-72.6316,42.1351
339,RI,Kent,44003,-71.5943,41.6719
340,NH,Rockingham,33015,-71.1251,42.9877
341,NJ,Union,34039,-74.3104,40.66
342,ME,York,23031,-70.7156,43.4796
343,ME,Cumberland,23005,-70.4096,43.8487
344,ME,Franklin,23007,-70.444,44.974
345,NJ,Bergen,34003,-74.0781,40.9615
346,CT,New London,09011,-72.1004,41.4893
347,MA,Suffolk,25025,-71.0818,42.3308
348,ME,Waldo,23027,-69.1478,44.5037
349,ME,Hancock,23009,-68.3531,44.6749
350,NY,Nassau,36059,-73.5885,40.7411
351,NJ,Essex,34013,-74.2481,40.7881
352,MA,Barnstable,25001,-70.2982,41.7257
353,ME,Kennebec,23011,-69.7672,44.4093
354,CT,Middlesex,09007,-72.534,41.4624
355,CT,Fairfield,09001,-73.3887,41.2731
356,NH,Coos,33007,-71.3057,44.6893
357,VT,Caledonia,50005,-72.1022,44.4647
358,KY,Madison,21151,-84.278,37.7202
359,KY,Magoffin,21153,-83.0648,37.7066
360,KY,Marion,21155,-85.2696,37.5525
361,KY,Marshall,21157,-88.3293,36.8834
362,KY,Martin,21159,-82.5132,37.8016
363,KY,Mason,21161,-83.824,38.5952
364,KY,Meade,21163,-86.2169,37.9695
365,KY,Menifee,21165,-83.5989,37.9414
366,KY,Mercer,21167,-84.8744,37.8111
367,KY,Metcalfe,21169,-85.6291,36.9905
368,KY,Monroe,21171,-85.7164,36.7122
369,KY,Montgomery,21173,-83.9132,38.0336
370,KY,Morgan,21175,-83.2589,37.9223
371,KY,Muhlenberg,21177,-87.1421,37.2157
372,KY,Nelson,21179,-85.4662,37.8051
373,KY,Nicholas,21181,-84.0153,38.3356
374,KY,Ohio,21183,-86.849,37.4783
375,KY,Oldham,21185,-85.4485,38.3995
376,KY,Owen,21187,-84.828,38.5197
377,KY,Owsley,21189,-83.6832,37.4192
378,KY,Pendleton,21191,-84.3602,38.6957
379,KY,Perry,21193,-83.2215,37.2443
380,KY,Pike,21195,-82.3958,37.469
381,KY,Powell,21197,-83.8238,37.8312
382,KY,Pulaski,21199,-84.5771,37.1039
383,KY,Robertson,21201,-84.0521,38.5188
384,KY,Rockcastle,21203,-84.316,37.3652
385,KY,Rowan,21205,-83.4211,38.1963
386,KY,Russell,21207,-85.0586,36.9911
387,KY,Scott,21209,-84.5839,38.2915
388,KY,Shelby,21211,-85.1948,38.2155
389,KY,Simpson,21213,-86.5823,36.7419
390,KY,Spencer,21215,-85.3279,38.0325
391,KY,Taylor,21217,-85.3279,37.3664
392,KY,Todd,21219,-87.1791,36.8356
393,KY,Trigg,21221,-87.8734,36.8064
394,KY,Trimble,21223,-85.3374,38.613
395,KY,Union,21225,-87.9453,37.6584
396,KY,Warren,21227,-86.4239,36.9936
397,KY,Washington,21229,-85.1747,37.7534
398,KY,Wayne,21231,-84.8285,36.8013
399,KY,Webster,21233,-87.6832,37.5183
400,KY,Whitley,21235,-84.1452,36.7582
401,KY,Wolfe,21237,-83.4931,37.7393
402,KY,Woodford,21239,-84.7435,38.0423
403,KY,Lee,21129,-83.7163,37.5947
404,KY,Fulton,21075,-89.1873,36.5541
405,KY,Adair,21001,-85.2805,37.1041
406,KY,Allen,21003,-86.1904,36.7513
407,KY,Anderson,21005,-84.9909,38.004
408,KY,Ballard,21007,-88.9992,37.0584
409,KY,Barren,21009,-85.9336,36.9656
410,KY,Bath,21011,-83.7428,38.1449
411,KY,Bell,21013,-83.674,36.7307
412,KY,Boone,21015,-84.7279,38.97
413,KY,Bourbon,21017,-84.2171,38.2068
414,KY,Boyd,21019,-82.6877,38.3596
415,KY,Boyle,21021,-84.8667,37.6244
416,KY,Bracken,21023,-84.0901,38.6888
417,KY,Breathitt,21025,-83.3241,37.5216
418,KY,Breckinridge,21027,-86.4293,37.7732
419,KY,Bullitt,21029,-85.6959,37.97
420,KY,Butler,21031,-86.6816,37.2074
421,KY,Caldwell,21033,-87.8679,37.1453
422,KY,Calloway,21035,-88.2723,36.6211
423,KY,Campbell,21037,-84.3793,38.9465
424,KY,Carlisle,21039,-88.9709,36.8532
425,KY,Carroll,21041,-85.1235,38.6679
426,KY,Carter,21043,-83.0495,38.3181
427,KY,Casey,21045,-84.9283,37.3223
428,KY,Christian,21047,-87.4904,36.8941
429,KY,Clark,21049,-84.1475,37.9709
430,KY,Clay,21051,-83.7146,37.1598
431,KY,Hopkins,21107,-87.541,37.3088
432,KY,Crittenden,21055,-88.0972,37.3527
433,KY,Cumberland,21057,-85.3884,36.7866
434,KY,Daviess,21059,-87.0873,37.7318
435,KY,Edmonson,21061,-86.2385,37.2087
436,KY,Elliott,21063,-83.0976,38.1179
437,KY,Estill,21065,-83.9643,37.6924
438,KY,Fayette,21067,-84.4588,38.0423
439,KY,Fleming,21069,-83.6967,38.3701
440,KY,Floyd,21071,-82.7457,37.5572
441,KY,Franklin,21073,-84.877,38.2391
442,KY,Gallatin,21077,-84.8592,38.7569
443,KY,Garrard,21079,-84.5376,37.6396
444,KY,Grant,21081,-84.6245,38.6488
445,KY,Graves,21083,-88.6512,36.723
446,KY,Grayson,21085,-86.3439,37.4608
447,KY,Green,21087,-85.5531,37.2639
448,KY,Greenup,21089,-82.9223,38.5456
449,KY,Hancock,21091,-86.778,37.8415
450,KY,Hardin,21093,-85.9635,37.6979
451,KY,Harlan,21095,-83.2179,36.857
452,KY,Harrison,21097,-84.3315,38.4418
453,KY,Hickman,21105,-88.9761,36.6781
454,KY,Henry,21103,-85.1189,38.4484
455,KY,Henderson,21101,-87.5729,37.7961
456,KY,Hart,21099,-85.8847,37.2999
457,KY,Laurel,21125,-84.1178,37.1107
458,KY,Clinton,21053,-85.1361,36.7275
459,MI,Roscommon,26143,-84.6116,44.3356
460,MI,Saginaw,26145,-84.0532,43.335
461,MI,St. Joseph,26149,-85.5278,41.9145
462,MI,Shiawassee,26155,-84.1467,42.9537
463,MI,Washtenaw,26161,-83.8384,42.2534
464,MS,Amite,28005,-90.8045,31.1744
465,MS,Attala,28007,-89.5817,33.0863
466,MS,Benton,28009,-89.1885,34.8173
467,MS,Adams,28001,-91.3531,31.4832
468,MS,Yalobusha,28161,-89.7076,34.0282
469,MS,Winston,28159,-89.0344,33.0885
470,MS,Wilkinson,28157,-91.3109,31.161
471,MS,Webster,28155,-89.2848,33.6131
472,MS,Wayne,28153,-88.6958,31.6408
473,MS,Washington,28151,-90.9474,33.2836
474,MS,Warren,28149,-90.8521,32.3573
475,MS,Walthall,28147,-90.1061,31.1485
476,MS,Union,28145,-89.0038,34.4905
477,MS,Tunica,28143,-90.3755,34.652
478,MS,Tishomingo,28141,-88.2393,34.7404
479,MS,Tippah,28139,-88.9089,34.7684
480,MS,Tate,28137,-89.9448,34.6503
481,MS,Tallahatchie,28135,-90.1732,33.9505
482,MS,Sunflower,28133,-90.5886,33.6023
483,MS,Stone,28131,-89.1177,30.79
484,MS,Smith,28129,-89.5067,32.0177
485,MS,Simpson,28127,-89.9195,31.9132
486,MS,Sharkey,28125,-90.8132,32.8797
487,MS,Scott,28123,-89.5376,32.4064
488,MS,Rankin,28121,-89.9457,32.2641
489,MS,Quitman,28119,-90.2891,34.2514
490,MS,Prentiss,28117,-88.5201,34.6183
491,MS,Pontotoc,28115,-89.0374,34.2254
492,MS,Perry,28111,-88.9923,31.172
493,MS,Panola,28107,-89.9505,34.3639
494,MS,Oktibbeha,28105,-88.8793,33.425
495,MS,Noxubee,28103,-88.5698,33.1101
496,MS,Newton,28101,-89.1188,32.4002
497,MS,Neshoba,28099,-89.1176,32.7535
498,MS,Montgomery,28097,-89.6164,33.4941
499,MS,Monroe,28095,-88.4804,33.8923
500,MS,Marshall,28093,-89.5031,34.7623
501,MS,Marion,28091,-89.8224,31.2308
502,IA,Clinton,19045,-90.532,41.898
503,IA,Crawford,19047,-95.3821,42.0372
504,IA,Dallas,19049,-94.0398,41.6849
505,IA,Davis,19051,-92.4097,40.7477
506,IA,Decatur,19053,-93.7863,40.7377
507,IA,Wright,19197,-93.7352,42.7331
508,IA,Winneshiek,19191,-91.8436,43.2906
509,IA,Woodbury,19193,-96.0449,42.3897
510,IA,Worth,19195,-93.2609,43.3774
511,IA,Jones,19105,-91.1314,42.1212
512,IA,Webster,19187,-94.1818,42.4278
513,IA,Winnebago,19189,-93.7342,43.3775
514,IL,Jackson,17077,-89.3821,37.7852
515,IL,Jefferson,17081,-88.924,38.3005
516,IL,Jersey,17083,-90.3566,39.0856
517,IL,Jo Daviess,17085,-90.2123,42.3657
518,IL,Johnson,17087,-88.8809,37.4596
519,IL,Kane,17089,-88.4287,41.939
520,IL,Kankakee,17091,-87.8618,41.1377
521,IL,Kendall,17093,-88.4289,41.5906
522,IL,Iroquois,17075,-87.8243,40.7474
523,IL,La Salle,17099,-88.8859,41.3439
524,IL,Lawrence,17101,-87.7266,38.72
525,IL,Henry,17073,-90.1314,41.3531
526,IL,Livingston,17105,-88.5578,40.8914
527,IL,Logan,17107,-89.3676,40.1245
528,IL,McDonough,17109,-90.678,40.4562
529,IL,McHenry,17111,-88.4524,42.3244
530,IL,McLean,17113,-88.8473,40.4908
531,IL,Macon,17115,-88.9617,39.8599
532,IL,Macoupin,17117,-89.9244,39.261
533,IL,Madison,17119,-89.9051,38.8299
534,IL,Marion,17121,-88.919,38.6496
535,IL,Marshall,17123,-89.3448,41.0332
536,IL,Mason,17125,-89.9168,40.2397
537,IL,Massac,17127,-88.7078,37.219
538,SD,Hyde,46069,-99.4871,44.5474
539,SD,Hutchinson,46067,-97.7546,43.3348
540,SD,Hughes,46065,-99.9961,44.389
541,SD,Harding,46063,-103.4959,45.5804
542,SD,Hanson,46061,-97.7874,43.6748
543,SD,Hand,46059,-99.005,44.5478
544,SD,Hamlin,46057,-97.1883,44.6737
545,SD,Haakon,46055,-101.54,44.2944
546,SD,Gregory,46053,-99.1856,43.1924
547,SD,Grant,46051,-96.7677,45.172
548,SD,Faulk,46049,-99.1453,45.0711
549,SD,Edmunds,46045,-99.2155,45.4188
550,SD,Douglas,46043,-98.3662,43.3871
551,SD,Dewey,46041,-100.8719,45.1566
552,SD,Deuel,46039,-96.668,44.76
553,SD,Day,46037,-97.6075,45.3672
554,SD,Davison,46035,-98.1461,43.675
555,SD,Corson,46031,-101.1969,45.7087
556,SD,Codington,46029,-97.1887,44.9778
557,SD,Clay,46027,-96.9757,42.9146
558,SD,Clark,46025,-97.7295,44.8582
559,SD,Charles Mix,46023,-98.5879,43.2079
560,SD,Campbell,46021,-100.0517,45.7711
561,SD,Buffalo,46017,-99.205,44.0763
562,SD,Brule,46015,-99.081,43.7181
563,SD,Brown,46013,-98.3516,45.5898
564,SD,Brookings,46011,-96.7905,44.3697
565,SD,Bon Homme,46009,-97.8847,42.9884
566,SD,Bennett,46007,-101.6639,43.1949
567,SD,Beadle,46005,-98.2782,44.4145
568,SD,Aurora,46003,-98.5616,43.7182
569,SD,Mellette,46095,-100.76,43.5811
570,SD,Butte,46019,-103.5081,44.9058
571,SD,Jones,46075,-100.6896,43.9604
572,SD,Turner,46125,-97.1488,43.3108
573,SD,Union,46127,-96.6561,42.8324
574,CO,Baca,08009,-102.5605,37.3192
575,CO,Bent,08011,-103.0717,37.9551
576,CO,Cheyenne,08017,-102.6034,38.8279
577,CO,Crowley,08025,-103.7849,38.3266
578,CO,Kit Carson,08063,-102.6029,39.3054
579,CO,Logan,08075,-103.1101,40.7247
580,CO,Morgan,08087,-103.8098,40.2627
581,CO,Otero,08089,-103.7164,37.9027
582,CO,Phillips,08095,-102.3575,40.5939
583,CO,Prowers,08099,-102.3933,37.9552
584,CO,San Juan,08111,-107.6761,37.764
585,CO,Sedgwick,08115,-102.3518,40.8758
586,CO,Washington,08121,-103.2013,39.971
587,CO,Yuma,08125,-102.4243,40.0029
588,KS,Grant,20067,-101.308,37.5622
589,KS,Washington,20201,-97.0874,39.7842
590,KS,Wichita,20203,-101.3474,38.4821
591,KS,Wilson,20205,-95.7434,37.5593
592,KS,Woodson,20207,-95.7402,37.8867
593,KS,Wabaunsee,20197,-96.2049,38.9533
594,KS,Wallace,20199,-101.7636,38.9166
595,MT,Beaverhead,30001,-112.8988,45.1328
596,MT,Blaine,30005,-108.9586,48.4327
597,MT,Broadwater,30007,-111.4955,46.3319
598,MT,Carter,30011,-104.5362,45.5168
599,MT,Cascade,30013,-111.3472,47.308
600,MT,Chouteau,30015,-110.4352,47.8806
601,MT,Custer,30017,-105.5718,46.2527
602,MT,Daniels,30019,-105.5485,48.7838
603,MT,Dawson,30021,-104.8994,47.2664
604,MT,Deer Lodge,30023,-113.0677,46.0608
605,MT,Fallon,30025,-104.4174,46.334
606,MT,Fergus,30027,-109.2243,47.2636
607,MT,Garfield,30033,-106.9928,47.2777
608,MT,Hill,30041,-110.1113,48.6282
609,VT,Essex,50009,-71.7364,44.7281
610,NY,Chautauqua,36013,-79.3664,42.2282
611,PR,Toa Baja,72137,-66.2144,18.4312
612,PR,Vega Baja,72145,-66.398,18.4284
613,NY,Suffolk,36103,-72.8573,40.878
614,MA,Bristol,25005,-71.1153,41.802
615,NY,Queens,36081,-73.8177,40.7067
616,NY,Queens,36081,-73.8481,40.7884
617,NY,Kings,36047,-73.9472,40.6447
618,NY,Jefferson,36045,-75.9102,44.0409
619,NH,Grafton,33009,-71.8205,43.9409
620,WV,Lewis,54041,-80.5022,38.9958
621,WV,Harrison,54033,-80.3798,39.2835
622,WV,Doddridge,54017,-80.7069,39.2692
623,GA,Wilkes,13317,-82.7432,33.782
624,GA,Wilcox,13315,-83.4322,31.9734
625,GA,Whitfield,13313,-84.9673,34.8056
626,GA,White,13311,-83.7472,34.6464
627,GA,Wheeler,13309,-82.7246,32.1171
628,GA,Webster,13307,-84.551,32.0466
629,GA,Wayne,13305,-81.9168,31.5515
630,GA,Washington,13303,-82.7959,32.9695
631,GA,Warren,13301,-82.6767,33.409
632,GA,Ware,13299,-82.4238,31.0534
633,GA,Walker,13295,-85.3009,34.7356
634,GA,Union,13291,-83.9907,34.8342
635,GA,Twiggs,13289,-83.4272,32.6672
636,GA,Turner,13287,-83.6242,31.7164
637,GA,Troup,13285,-85.0283,33.0335
638,GA,Treutlen,13283,-82.5673,32.4039
639,GA,Towns,13281,-83.7373,34.9166
640,GA,Toombs,13279,-82.3306,32.1206
641,GA,Tift,13277,-83.5266,31.4575
642,GA,Thomas,13275,-83.9194,30.8637
643,GA,Terrell,13273,-84.4368,31.7768
644,GA,Telfair,13271,-82.9389,31.9298
645,GA,Tattnall,13267,-82.0582,32.0458
646,GA,Taliaferro,13265,-82.8787,33.5662
647,GA,Talbot,13263,-84.533,32.6995
648,GA,Sumter,13261,-84.1971,32.04
649,GA,Stewart,13259,-84.8351,32.0785
650,GA,Stephens,13257,-83.2935,34.554
651,GA,Spalding,13255,-84.2841,33.2609
652,GA,Screven,13251,-81.6119,32.7507
653,GA,Schley,13249,-84.3149,32.262
654,GA,Rockdale,13247,-84.0267,33.6545
655,GA,Richmond,13245,-82.0735,33.3596
656,GA,Randolph,13243,-84.7542,31.7626
657,GA,Rabun,13241,-83.4021,34.8818
658,GA,Putnam,13237,-83.3728,33.3218
659,GA,Pulaski,13235,-83.4764,32.2328
660,GA,Polk,13233,-85.1881,34.0018
661,GA,Pike,13231,-84.3892,33.0922
662,GA,Pierce,13229,-82.2134,31.3589
663,GA,Pickens,13227,-84.4656,34.4643
664,GA,Peach,13225,-83.8268,32.5688
665,GA,Paulding,13223,-84.8672,33.9202
666,GA,Oglethorpe,13221,-83.0806,33.8807
667,GA,Oconee,13219,-83.437,33.8349
668,GA,Newton,13217,-83.8503,33.5551
669,GA,Muscogee,13215,-84.877,32.51
670,GA,Dodge,13091,-83.1684,32.1722
671,GA,Dooly,13093,-83.7987,32.1572
672,GA,Dougherty,13095,-84.2164,31.5333
673,GA,Douglas,13097,-84.7677,33.7015
674,GA,Early,13099,-84.9037,31.3228
675,GA,Echols,13101,-82.8939,30.7101
676,GA,Elbert,13105,-82.8403,34.117
677,GA,Emanuel,13107,-82.3018,32.5898
678,GA,Fannin,13111,-84.3197,34.8641
679,GA,Fayette,13113,-84.4941,33.414
680,GA,Floyd,13115,-85.2143,34.2632
681,GA,Forsyth,13117,-84.1253,34.2255
682,GA,Franklin,13119,-83.2292,34.3755
683,GA,Gilmer,13123,-84.4554,34.6915
684,GA,Glascock,13125,-82.6107,33.2293
685,GA,Gordon,13129,-84.8757,34.5034
686,GA,Grady,13131,-84.2344,30.8747
687,GA,Greene,13133,-83.1667,33.5788
688,GA,Gwinnett,13135,-84.0235,33.9617
689,GA,Habersham,13137,-83.5312,34.631
690,GA,Hall,13139,-83.8197,34.3168
691,GA,Hancock,13141,-83.001,33.2703
692,GA,Haralson,13143,-85.211,33.7943
693,GA,Harris,13145,-84.909,32.736
694,GA,Hart,13147,-82.964,34.3511
695,GA,Heard,13149,-85.1283,33.297
696,GA,Henry,13151,-84.1554,33.4534
697,GA,Houston,13153,-83.6662,32.459
698,GA,Irwin,13155,-83.2764,31.6023
699,GA,Jackson,13157,-83.5663,34.1339
700,GA,Clayton,13063,-84.3577,33.5419
701,GA,Jefferson,13163,-82.4181,33.0549
702,IN,Vanderburgh,18163,-87.5857,38.0254
703,IN,Union,18161,-84.9251,39.6255
704,IN,Tipton,18159,-86.0519,40.3114
705,IN,Tippecanoe,18157,-86.8941,40.3886
706,IN,Switzerland,18155,-85.037,38.8262
707,IN,Sullivan,18153,-87.4146,39.0888
708,IN,Steuben,18151,-85.0008,41.6439
709,IN,Starke,18149,-86.6478,41.281
710,IN,Spencer,18147,-87.0077,38.0142
711,IN,Shelby,18145,-85.7918,39.5236
712,IN,Scott,18143,-85.7474,38.6851
713,IN,St. Joseph,18141,-86.2898,41.6167
714,IN,Rush,18139,-85.4658,39.6199
715,IN,Washington,18175,-86.1053,38.6
716,IN,Randolph,18135,-85.0114,40.1576
717,IN,Putnam,18133,-86.845,39.6663
718,IN,Pulaski,18131,-86.6989,41.0419
719,IN,Posey,18129,-87.8684,38.0218
720,IN,Porter,18127,-87.0672,41.4605
721,IN,Pike,18125,-87.2322,38.3988
722,IN,Perry,18123,-86.638,38.0797
723,IN,Parke,18121,-87.2063,39.7736
724,IN,Owen,18119,-86.8376,39.3129
725,IN,Orange,18117,-86.4951,38.5418
726,IN,Ohio,18115,-84.965,38.9501
727,IN,Noble,18113,-85.4174,41.3986
728,IN,Newton,18111,-87.3975,40.9559
729,IN,Morgan,18109,-86.4462,39.4815
730,IN,Montgomery,18107,-86.8933,40.0404
731,IN,Monroe,18105,-86.5231,39.1609
732,IN,Miami,18103,-86.0451,40.7695
733,IN,Martin,18101,-86.8031,38.708
734,IA,Scott,19163,-90.6232,41.6371
735,IA,Sac,19161,-95.1055,42.3862
736,IA,Ringgold,19159,-94.244,40.7352
737,IA,Poweshiek,19157,-92.5315,41.6864
738,IA,Pottawattamie,19155,-95.5423,41.3364
739,IA,Polk,19153,-93.5734,41.6855
740,IA,Pocahontas,19151,-94.6788,42.7341
741,IA,Plymouth,19149,-96.2142,42.7378
742,IA,Palo Alto,19147,-94.6782,43.082
743,IA,Page,19145,-95.1502,40.7391
744,IA,Osceola,19143,-95.6237,43.3785
745,IA,O'Brien,19141,-95.625,43.0838
746,IA,Muscatine,19139,-91.1127,41.4839
747,IA,Montgomery,19137,-95.1563,41.0301
748,IA,Monroe,19135,-92.869,41.0297
749,IA,Monona,19133,-95.96,42.0516
750,IA,Mitchell,19131,-92.7891,43.3564
751,IA,Mills,19129,-95.6214,41.0332
752,IA,Marshall,19127,-92.9988,42.0358
753,IA,Marion,19125,-93.0995,41.3344
754,IA,Mahaska,19123,-92.6409,41.3351
755,IA,Madison,19121,-94.0155,41.3307
756,IA,Lyon,19119,-96.2103,43.3805
757,IA,Lucas,19117,-93.3277,41.0293
758,IA,Louisa,19115,-91.2597,41.2185
759,IA,Linn,19113,-91.5989,42.0789
760,IA,Lee,19111,-91.4792,40.642
761,IA,Kossuth,19109,-94.2067,43.2042
762,IA,Keokuk,19107,-92.1787,41.3364
763,IA,Johnson,19103,-91.5881,41.6715
764,IA,Jefferson,19101,-91.9489,41.0318
765,IA,Jackson,19097,-90.5742,42.1717
766,VA,Orange,51137,-78.0134,38.2463
767,VA,Rappahannock,51157,-78.1593,38.6845
768,VA,Rockingham,51165,-78.8758,38.5122
769,VA,Shenandoah,51171,-78.5704,38.8585
770,VA,Warren,51187,-78.2072,38.9087
771,VA,Albemarle,51003,-78.5565,38.0229
772,VA,Spotsylvania,51177,-77.6567,38.1854
773,VA,Augusta,51015,-79.1338,38.1646
774,VA,Frederick,51069,-78.2626,39.2046
775,VA,Greene,51079,-78.4669,38.2977
776,VA,Culpeper,51047,-77.9559,38.4861
777,VA,Clarke,51043,-77.9966,39.1122
778,VA,Madison,51113,-78.2792,38.4137
779,VA,Page,51139,-78.4841,38.62
780,WV,Morgan,54065,-78.2578,39.5604
781,WV,Jefferson,54037,-77.8628,39.3076
782,WV,Hardy,54031,-78.8579,39.0075
783,WV,Berkeley,54003,-78.0275,39.4641
784,MD,Carroll,24013,-77.0228,39.5631
785,MD,Howard,24027,-76.9315,39.251
786,VA,Loudoun,51107,-77.6357,39.0907
787,VA,Highland,51091,-79.5685,38.3623
788,WV,Pendleton,54071,-79.3509,38.6808
789,VA,Fauquier,51061,-77.8094,38.7386
790,MD,Allegany,24001,-78.6989,39.6215
791,WV,Mineral,54057,-78.9438,39.4147
792,WV,Grant,54023,-79.1955,39.1051
793,VA,City of Harrisonburg,51660,-78.8735,38.4362
794,VA,City of Waynesboro,51820,-78.9013,38.0673
795,VA,City of Winchester,51840,-78.1744,39.1733
796,VA,City of Staunton,51790,-79.0616,38.1587
797,GA,Murray,13213,-84.7481,34.7885
798,GA,Morgan,13211,-83.4924,33.5908
799,GA,Montgomery,13209,-82.5338,32.1746
800,GA,Monroe,13207,-83.9187,33.0141
801,GA,Mitchell,13205,-84.1942,31.2254
802,GA,Miller,13201,-84.7307,31.164
803,GA,Meriwether,13199,-84.6883,33.0407
804,GA,Marion,13197,-84.5246,32.3534
805,GA,Madison,13195,-83.209,34.1279
806,GA,McDuffie,13189,-82.4814,33.4829
807,GA,Lumpkin,13187,-84.0031,34.5722
808,GA,Lowndes,13185,-83.2677,30.8339
809,GA,Lincoln,13181,-82.4512,33.7936
810,GA,Laurens,13175,-82.9222,32.4637
811,GA,Lanier,13173,-83.0626,31.038
812,GA,Lamar,13171,-84.1394,33.0765
813,GA,Jones,13169,-83.5605,33.0251
814,GA,Johnson,13167,-82.6601,32.7015
815,GA,Jenkins,13165,-81.9636,32.7925
816,GA,Wilkinson,13319,-83.1713,32.8024
817,GA,Jeff Davis,13161,-82.637,31.8056
818,GA,Upson,13293,-84.2993,32.8812
819,GA,Macon,13193,-84.0425,32.3584
820,GA,Evans,13109,-81.8868,32.1568
821,GA,Lee,13177,-84.141,31.7796
822,GA,Taylor,13269,-84.2504,32.5556
823,GA,Brooks,13027,-83.5803,30.842
824,GA,Appling,13001,-82.289,31.7493
825,GA,Atkinson,13003,-82.88,31.2971
826,GA,Bacon,13005,-82.4527,31.5537
827,GA,Baker,13007,-84.4447,31.3262
828,GA,Baldwin,13009,-83.2498,33.069
829,GA,Banks,13011,-83.4974,34.3541
830,GA,Barrow,13013,-83.7126,33.9932
831,GA,Bartow,13015,-84.8405,34.2379
832,GA,Ben Hill,13017,-83.2206,31.7598
833,GA,Berrien,13019,-83.2297,31.2761
834,GA,Bibb,13021,-83.6979,32.8067
835,GA,Bleckley,13023,-83.3279,32.4344
836,GA,Brantley,13025,-81.9819,31.197
837,GA,Bulloch,13031,-81.7432,32.3969
838,GA,Burke,13033,-82.0008,33.0612
839,GA,Butts,13035,-83.9572,33.2891
840,GA,Calhoun,13037,-84.6249,31.5292
841,GA,Candler,13043,-82.0737,32.4035
842,GA,Carroll,13045,-85.0797,33.5828
843,GA,Catoosa,13047,-85.1381,34.9036
844,GA,Chattahoochee,13053,-84.787,32.347
845,GA,Chattooga,13055,-85.3454,34.475
846,GA,Cherokee,13057,-84.4764,34.2439
847,GA,Clarke,13059,-83.3675,33.9513
848,GA,Worth,13321,-83.851,31.5516
849,GA,Clinch,13065,-82.7063,30.9151
850,GA,Cobb,13067,-84.5767,33.9415
851,GA,Coffee,13069,-82.8493,31.5492
852,GA,Colquitt,13071,-83.7688,31.1884
853,GA,Columbia,13073,-82.264,33.5442
854,GA,Cook,13075,-83.4305,31.154
855,GA,Coweta,13077,-84.7633,33.3535
856,GA,Crawford,13079,-83.9864,32.7145
857,GA,Crisp,13081,-83.7681,31.923
858,GA,Dade,13083,-85.5045,34.8546
859,GA,Dawson,13085,-84.1704,34.4438
860,GA,DeKalb,13089,-84.2263,33.7715
861,MI,Alcona,26001,-83.5938,44.6854
862,MI,Wexford,26165,-85.5785,44.3384
863,MI,Iosco,26069,-83.636,44.3559
864,MI,Barry,26015,-85.309,42.595
865,MI,Branch,26023,-85.059,41.9161
866,MI,Calhoun,26025,-85.0055,42.2466
867,MI,Cass,26027,-85.9936,41.9153
868,MI,Clare,26035,-84.8478,43.9879
869,MI,Clinton,26037,-84.6015,42.9436
870,MI,Crawford,26039,-84.6103,44.6836
871,MI,Dickinson,26043,-87.8704,46.0091
872,MI,Eaton,26045,-84.8384,42.5961
873,MI,Genesee,26049,-83.7067,43.0217
874,MI,Gladwin,26051,-84.3882,43.9906
875,MI,Gratiot,26057,-84.6048,43.2927
876,MI,Hillsdale,26059,-84.593,41.8878
877,MI,Ingham,26065,-84.3736,42.5971
878,MI,Ionia,26067,-85.0746,42.9451
879,MI,Iron,26071,-88.5305,46.2087
880,MI,Isabella,26073,-84.8467,43.6406
881,MI,Jackson,26075,-84.4233,42.2485
882,MI,Kalamazoo,26077,-85.5311,42.2454
883,MI,Kalkaska,26079,-85.0902,44.6846
884,MI,Kent,26081,-85.5492,43.0322
885,MI,Lake,26085,-85.8017,43.99
886,MI,Lapeer,26087,-83.2218,43.0901
887,MI,Lenawee,26091,-84.0664,41.8951
888,MI,Livingston,26093,-83.9115,42.603
889,MI,Manistee,26101,-86.0571,44.3332
890,MI,Mecosta,26107,-85.3245,43.6409
891,MI,Midland,26111,-84.3879,43.6468
892,MI,Missaukee,26113,-85.0947,44.3373
893,MI,Montcalm,26117,-85.1524,43.311
894,MI,Montmorency,26119,-84.1273,45.0276
895,MI,Newaygo,26123,-85.8009,43.5542
896,MI,Oakland,26125,-83.3855,42.6604
897,MI,Ogemaw,26129,-84.1266,44.3349
898,MI,Osceola,26133,-85.3252,43.9899
899,MI,Oscoda,26135,-84.1297,44.6817
900,MI,Otsego,26137,-84.5988,45.0214
901,NC,Hoke,37093,-79.2371,35.0174
902,NC,Alamance,37001,-79.3995,36.044
903,NC,Alexander,37003,-81.1772,35.9211
904,NC,Alleghany,37005,-81.1286,36.4915
905,NC,Anson,37007,-80.1027,34.9738
906,NC,Ashe,37009,-81.501,36.4346
907,NC,Avery,37011,-81.9224,36.0766
908,NC,Buncombe,37021,-82.5302,35.6112
909,NC,Cabarrus,37025,-80.5519,35.3868
910,NC,Caswell,37033,-79.3337,36.3934
911,NC,Catawba,37035,-81.2144,35.6626
912,NC,Chatham,37037,-79.2553,35.7027
913,NC,Cherokee,37039,-84.0635,35.1339
914,NC,Clay,37043,-83.7502,35.0572
915,NC,Cleveland,37045,-81.5554,35.334
916,NC,Cumberland,37051,-78.8273,35.0485
917,NC,Davidson,37057,-80.2127,35.7932
918,NC,Davie,37059,-80.5446,35.9292
919,NC,Durham,37063,-78.8764,36.0359
920,NC,Edgecombe,37065,-77.5971,35.9129
921,NC,Forsyth,37067,-80.2563,36.1304
922,NC,Franklin,37069,-78.2857,36.0827
923,NC,Gaston,37071,-81.1801,35.2945
924,NC,Graham,37075,-83.8335,35.3502
925,NC,Granville,37077,-78.653,36.304
926,NC,Greene,37079,-77.6756,35.4852
927,NC,Guilford,37081,-79.789,36.0794
928,NC,Halifax,37083,-77.6519,36.2575
929,NC,Haywood,37087,-82.9822,35.5561
930,NC,Henderson,37089,-82.4799,35.3362
931,NC,Iredell,37097,-80.8736,35.8072
932,NC,Lee,37105,-79.1716,35.475
933,NC,Lincoln,37109,-81.2239,35.4862
934,NC,Macon,37113,-83.4221,35.1504
935,NC,Madison,37115,-82.7057,35.8581
936,NC,Mecklenburg,37119,-80.8328,35.2468
937,NC,Mitchell,37121,-82.1634,36.0133
938,NC,Montgomery,37123,-79.9054,35.3324
939,NC,Moore,37125,-79.4813,35.3107
940,NC,Yadkin,37197,-80.6653,36.1605
941,NC,Orange,37135,-79.1205,36.0614
942,NC,Person,37145,-78.9717,36.3901
943,NC,Pitt,37147,-77.3748,35.5935
944,NC,Randolph,37151,-79.806,35.7103
945,NC,Richmond,37153,-79.748,35.0059
946,NC,Robeson,37155,-79.1035,34.6401
947,NC,Rockingham,37157,-79.7751,36.3961
948,NC,Scotland,37165,-79.4805,34.8411
949,NC,Stanly,37167,-80.2507,35.312
950,NC,Stokes,37169,-80.2395,36.4018
951,NC,Surry,37171,-80.6882,36.4148
952,NC,Swain,37173,-83.4927,35.4867
953,NC,Transylvania,37175,-82.7983,35.2022
954,NC,Union,37179,-80.5307,34.9884
955,NC,Vance,37181,-78.4083,36.3648
956,NC,Wake,37183,-78.6504,35.7901
957,NC,Warren,37185,-78.1069,36.3966
958,NC,Watauga,37189,-81.6969,36.2313
959,NC,Wilkes,37193,-81.1638,36.2065
960,NC,Wilson,37195,-77.9185,35.7048
961,NC,Yancey,37199,-82.3076,35.8989
962,NC,Nash,37127,-77.9864,35.9672
963,NC,Rowan,37159,-80.5247,35.6396
964,OH,Adams,39001,-83.472,38.8457
965,OH,Allen,39003,-84.1057,40.7715
966,OH,Ashland,39005,-82.2707,40.846
967,OH,Athens,39009,-82.0452,39.3337
968,OH,Auglaize,39011,-84.2217,40.5609
969,OH,Belmont,39013,-80.9885,40.0158
970,OH,Brown,39015,-83.868,38.9344
971,OH,Butler,39017,-84.5755,39.4386
972,OH,Carroll,39019,-81.0897,40.5796
973,OH,Champaign,39021,-83.7696,40.1377
974,OH,Clark,39023,-83.7835,39.9168
975,OH,Wyandot,39175,-83.3044,40.8424
976,OH,Clinton,39027,-83.8084,39.415
977,OH,Columbiana,39029,-80.7775,40.7686
978,OH,Coshocton,39031,-81.92,40.3017
979,OH,Crawford,39033,-82.9197,40.8509
980,OH,Darke,39037,-84.6193,40.1333
981,OH,Defiance,39039,-84.4906,41.3239
982,OH,Delaware,39041,-83.0052,40.2785
983,OH,Fairfield,39045,-82.6305,39.7516
984,OH,Fayette,39047,-83.4561,39.5599
985,OH,Franklin,39049,-83.0093,39.9696
986,OH,Fulton,39051,-84.1301,41.6018
987,OH,Gallia,39053,-82.3169,38.8247
988,OH,Greene,39057,-83.8898,39.6915
989,OH,Guernsey,39059,-81.4942,40.0521
990,OH,Hamilton,39061,-84.5426,39.1954
991,OH,Hancock,39063,-83.6665,41.0019
992,OH,Hardin,39065,-83.6594,40.6615
993,OH,Harrison,39067,-81.0911,40.2938
994,OH,Henry,39069,-84.0682,41.3339
995,OH,Hocking,39073,-82.4792,39.497
996,OH,Holmes,39075,-81.9294,40.5612
997,OH,Huron,39077,-82.5984,41.1462
998,OH,Jackson,39079,-82.6184,39.0197
999,OH,Jefferson,39081,-80.761,40.385
1000,OH,Knox,39083,-82.4216,40.3988
1001,OH,Lawrence,39087,-82.5368,38.5985
1002,OH,Licking,39089,-82.4835,40.0918
1003,OH,Logan,39091,-83.7658,40.3885
1004,OH,Lorain,39093,-82.1512,41.2955
1005,OH,Madison,39097,-83.3999,39.8941
1006,OH,Mahoning,39099,-80.7753,41.0146
1007,OH,Marion,39101,-83.1609,40.5873
1008,OH,Medina,39103,-81.8997,41.1176
1009,OH,Meigs,39105,-82.0229,39.0821
1010,OH,Mercer,39107,-84.6293,40.54
1011,OH,Miami,39109,-84.2289,40.0534
1012,OH,Monroe,39111,-81.0829,39.7274
1013,OH,Montgomery,39113,-84.2906,39.7545
1014,OH,Morgan,39115,-81.8527,39.6203
1015,OH,Morrow,39117,-82.7941,40.524
1016,OH,Muskingum,39119,-81.9444,39.9654
1017,OH,Noble,39121,-81.4556,39.766
1018,OH,Paulding,39125,-84.5801,41.1166
1019,OH,Perry,39127,-82.2361,39.7371
1020,OH,Pickaway,39129,-83.0243,39.642
1021,OH,Pike,39131,-83.0668,39.0774
1022,OH,Portage,39133,-81.1962,41.1676
1023,OH,Preble,39135,-84.6481,39.7416
1024,OH,Putnam,39137,-84.1317,41.0221
1025,OH,Richland,39139,-82.5365,40.7747
1026,OH,Ross,39141,-83.057,39.3376
1027,OH,Scioto,39145,-82.9928,38.804
1028,OH,Seneca,39147,-83.1277,41.1239
1029,OH,Shelby,39149,-84.2048,40.3315
1030,OH,Stark,39151,-81.3659,40.8138
1031,OH,Summit,39153,-81.5321,41.1259
1032,OH,Trumbull,39155,-80.7604,41.3174
1033,OH,Tuscarawas,39157,-81.4738,40.441
1034,OH,Union,39159,-83.3715,40.2995
1035,OH,Van Wert,39161,-84.5861,40.8554
1036,OH,Vinton,39163,-82.4854,39.251
1037,OH,Warren,39165,-84.1668,39.4277
1038,OH,Washington,39167,-81.4953,39.4553
1039,OH,Wayne,39169,-81.8883,40.8289
1040,OH,Williams,39171,-84.5882,41.5603
1041,OH,Wood,39173,-83.623,41.3617
1042,OH,Clermont,39025,-84.1522,39.0476
1043,OH,Highland,39071,-83.6009,39.1848
1044,SC,Abbeville,45001,-82.4587,34.2226
1045,SC,Allendale,45005,-81.3581,32.9881
1046,SC,Anderson,45007,-82.6379,34.5191
1047,SC,Bamberg,45009,-81.0542,33.2147
1048,SC,Cherokee,45021,-81.6204,35.0482
1049,SC,Chester,45023,-81.1595,34.6921
1050,SC,Chesterfield,45025,-80.1586,34.6398
1051,SC,Darlington,45031,-79.9577,34.3323
1052,SC,Edgefield,45037,-81.9666,33.7723
1053,SC,Fairfield,45039,-81.1212,34.3951
1054,SC,Greenwood,45047,-82.1259,34.1538
1055,SC,Kershaw,45055,-80.5903,34.3388
1056,SC,Lancaster,45057,-80.7054,34.6867
1057,SC,Laurens,45059,-82.006,34.4836
1058,SC,Lee,45061,-80.2545,34.1633
1059,SC,Lexington,45063,-81.2722,33.9022
1060,SC,McCormick,45065,-82.3099,33.8996
1061,SC,Marlboro,45069,-79.6786,34.602
1062,SC,Newberry,45071,-81.6001,34.2898
1063,SC,Richland,45079,-80.9031,34.0218
1064,SC,Saluda,45081,-81.7269,34.0061
1065,SC,Spartanburg,45083,-81.9907,34.9313
1066,SC,York,45091,-81.1845,34.9747
1067,SC,Union,45087,-81.6194,34.6892
1068,SC,Aiken,45003,-81.6348,33.5444
1069,NC,Johnston,37101,-78.3657,35.5176
1070,NC,Lenoir,37107,-77.6416,35.2393
1071,NC,Wayne,37191,-78.004,35.3638
1072,NC,Harnett,37085,-78.8693,35.3687
1073,NC,Sampson,37163,-78.3712,34.9915
1074,NC,Columbus,37047,-78.655,34.2655
1075,SC,Dillon,45033,-79.3789,34.3915
1076,SC,Marion,45067,-79.3625,34.0801
1077,SC,Calhoun,45017,-80.7802,33.6749
1078,SC,Florence,45041,-79.7028,34.0245
1079,SC,Sumter,45085,-80.3823,33.9162
1080,SC,Clarendon,45027,-80.2164,33.6658
1081,SC,Dorchester,45035,-80.4052,33.0795
1082,GA,Effingham,13103,-81.3407,32.3675
1083,SC,Orangeburg,45075,-80.8003,33.439
1084,SC,Williamsburg,45089,-79.7277,33.6199
1085,NC,Dare,37055,-75.8009,35.7715
1086,NC,Pamlico,37137,-76.7488,35.1407
1087,NC,Bladen,37017,-78.5632,34.6143
1088,GA,Decatur,13087,-84.7577,30.7994
1089,GA,Decatur,13087,-84.572,30.8815
1090,SC,Hampton,45049,-81.1406,32.7763
1091,SC,Charleston,45019,-80.1831,32.6714
1092,SC,Charleston,45019,-79.9439,32.8411
1093,GA,Seminole,13253,-84.8812,30.7935
1094,GA,Seminole,13253,-84.8681,30.9481
1095,OH,Lucas,39095,-83.6586,41.62
1096,OH,Ottawa,39123,-83.1467,41.5381
1097,OH,Geauga,39055,-81.1786,41.4995
1098,GA,Charlton,13049,-82.138,30.7818
1099,NC,Jones,37103,-77.3555,35.0222
1100,OH,Lake,39085,-81.237,41.6968
1101,OH,Sandusky,39143,-83.145,41.3565
1102,NC,Duplin,37061,-77.9333,34.9365
1103,GA,Quitman,13239,-85.0188,31.8674
1104,GA,Clay,13061,-84.9803,31.6264
1105,GA,Liberty,13179,-81.4998,31.8308
1106,GA,Fulton,13121,-84.4669,33.7903
1107,NC,McDowell,37111,-82.0487,35.6813
1108,NC,Polk,37149,-82.1696,35.2793
1109,NC,Rutherford,37161,-81.9202,35.4023
1110,NC,Jackson,37099,-83.1408,35.2874
1111,NC,Caldwell,37027,-81.5465,35.953
1112,NC,Burke,37023,-81.7045,35.7495
1113,OH,Ashtabula,39007,-80.7485,41.7074
1114,SC,Greenville,45045,-82.3708,34.8944
1115,SC,Oconee,45073,-83.0659,34.7535
1116,SC,Pickens,45077,-82.7254,34.8875
1117,GA,Camden,13039,-81.682,30.9335
1118,SC,Berkeley,45015,-79.9508,33.1978
1119,SC,Horry,45051,-78.9966,33.9215
1120,GA,Bryan,13029,-81.4474,32.0175
1121,SC,Colleton,45029,-80.668,32.8655
1122,GA,Chatham,13051,-81.1416,32.0099
1123,GA,Chatham,13051,-81.0394,31.9297
1124,GA,Long,13183,-81.746,31.7528
1125,OH,Cuyahoga,39035,-81.6587,41.4243
1126,OH,Erie,39043,-82.6178,41.3635
1127,GA,Glynn,13127,-81.5512,31.2365
1128,GA,McIntosh,13191,-81.4149,31.5007
1129,MS,Coahoma,28027,-90.6027,34.2292
1130,MS,Clay,28025,-88.7815,33.6557
1131,MS,Clarke,28023,-88.6894,32.0414
1132,MS,Claiborne,28021,-90.9118,31.9737
1133,MS,Choctaw,28019,-89.2484,33.3473
1134,MS,Chickasaw,28017,-88.9479,33.9208
1135,MS,Carroll,28015,-89.9202,33.4485
1136,MS,Calhoun,28013,-89.3364,33.9364
1137,MS,Bolivar,28011,-90.8804,33.7955
1138,MS,Pearl River,28109,-89.5898,30.7686
1139,MS,Alcorn,28003,-88.5803,34.8808
1140,MS,Yazoo,28163,-90.3965,32.7804
1141,TN,Overton,47133,-85.2881,36.345
1142,TN,Perry,47135,-87.859,35.6426
1143,AL,Crenshaw,01041,-86.3136,31.7315
1144,AL,Cullman,01043,-86.8676,34.132
1145,AL,Dale,01045,-85.611,31.4318
1146,AL,Dallas,01047,-87.1065,32.3258
1147,AL,DeKalb,01049,-85.8041,34.4598
1148,AL,Elmore,01051,-86.1492,32.5966
1149,AL,Escambia,01053,-87.1616,31.1262
1150,AL,Etowah,01055,-86.0348,34.0453
1151,AL,Fayette,01057,-87.7388,33.7212
1152,AL,Franklin,01059,-87.8438,34.4417
1153,AL,Geneva,01061,-85.839,31.095
1154,AL,Greene,01063,-87.9522,32.8531
1155,AL,Hale,01065,-87.6291,32.7627
1156,AL,Houston,01069,-85.3025,31.1532
1157,AL,Jefferson,01073,-86.8965,33.5543
1158,AL,Lamar,01075,-88.0969,33.7792
1159,AL,Lauderdale,01077,-87.6543,34.9015
1160,AL,Lawrence,01079,-87.311,34.522
1161,AL,Lee,01081,-85.3556,32.6012
1162,AL,Limestone,01083,-86.9813,34.8101
1163,AL,Lowndes,01085,-86.6501,32.1548
1164,AL,Macon,01087,-85.6926,32.386
1165,AL,Madison,01089,-86.5502,34.7631
1166,AL,Marengo,01091,-87.7895,32.2476
1167,AL,Marion,01093,-87.8871,34.1366
1168,AL,Marshall,01095,-86.3066,34.3669
1169,AL,Monroe,01099,-87.3658,31.5706
1170,AL,Montgomery,01101,-86.2076,32.2202
1171,AL,Morgan,01103,-86.8529,34.4535
1172,NE,Deuel,31049,-102.3339,41.1116
1173,NE,Dixon,31051,-96.8678,42.4932
1174,NE,Dodge,31053,-96.6542,41.5777
1175,NE,Douglas,31055,-96.1544,41.2953
1176,NE,Dundy,31057,-101.6879,40.1762
1177,NE,Fillmore,31059,-97.5964,40.5247
1178,NE,Franklin,31061,-98.9527,40.1764
1179,NE,Frontier,31063,-100.3942,40.5301
1180,NE,Furnas,31065,-99.9123,40.1765
1181,NE,Gage,31067,-96.6893,40.2619
1182,NE,Garden,31069,-102.3354,41.6194
1183,NE,Garfield,31071,-98.9914,41.9143
1184,NE,Gosper,31073,-99.8307,40.5148
1185,NE,Grant,31075,-101.7405,41.915
1186,NE,Greeley,31077,-98.5212,41.5675
1187,NE,Hall,31079,-98.5022,40.8725
1188,NE,Hamilton,31081,-98.0233,40.8735
1189,NE,Harlan,31083,-99.4046,40.1765
1190,NE,Hayes,31085,-101.0618,40.5248
1191,NE,Hitchcock,31087,-101.0422,40.1763
1192,NE,Holt,31089,-98.7838,42.4557
1193,NE,Hooker,31091,-101.1353,41.9159
1194,NE,Howard,31093,-98.5171,41.22
1195,NE,Jefferson,31095,-97.1426,40.1757
1196,NE,Johnson,31097,-96.2649,40.3926
1197,NE,Kearney,31099,-98.948,40.5067
1198,NE,Keith,31101,-101.6613,41.1988
1199,NE,Keya Paha,31103,-99.7124,42.8789
1200,NE,Kimball,31105,-103.715,41.1977
1201,NE,Knox,31107,-97.8919,42.6369
1202,MD,Harford,24025,-76.3194,39.5616
1203,MD,Calvert,24009,-76.5696,38.5529
1204,VA,City of Alexandria,51510,-77.0861,38.8185
1205,MD,Baltimore City,24510,-76.6163,39.3087
1206,MD,St. Marys,24037,-76.6076,38.3052
1207,MD,Calvert,24009,-76.4805,38.3838
1208,MD,Anne Arundel,24003,-76.5279,38.9332
1209,MD,St. Marys,24037,-76.6202,38.2729
1210,MD,Charles,24017,-76.9899,38.5077
1211,VA,King George,51099,-77.1572,38.2729
1212,VA,Fairfax,51059,-77.2788,38.8385
1213,VA,Prince William,51153,-77.4821,38.7037
1214,VA,Stafford,51179,-77.4603,38.4213
1215,MD,Charles,24017,-76.9809,38.393
1216,VA,King George,51099,-77.0516,38.3151
1217,VA,Stafford,51179,-77.3287,38.3825
1218,VA,Prince William,51153,-77.2826,38.5711
1219,MD,Baltimore City,24510,-76.5758,39.2531
1220,MD,Prince Georges,24033,-77.0099,38.7014
1221,VA,Fairfax,51059,-77.1788,38.6971
1222,VA,Nelson,51125,-78.8867,37.7874
1223,VA,New Kent,51127,-76.9972,37.5052
1224,VA,Nottoway,51135,-78.0513,37.1431
1225,VA,Powhatan,51145,-77.9151,37.5502
1226,VA,Prince Edward,51147,-78.4411,37.2243
1227,VA,King William,51101,-77.0884,37.7067
1228,VA,Sussex,51183,-77.2618,36.9218
1229,VA,Hanover,51085,-77.4909,37.7601
1230,TN,Pickett,47137,-85.0748,36.5585
1231,TN,Putnam,47141,-85.4951,36.1408
1232,TN,Rhea,47143,-84.9244,35.6087
1233,TN,Roane,47145,-84.5233,35.8478
1234,TN,Robertson,47147,-86.8705,36.5254
1235,TN,Rutherford,47149,-86.4167,35.8427
1236,TN,Scott,47151,-84.5035,36.4286
1237,TN,Sequatchie,47153,-85.4106,35.3712
1238,TN,Shelby,47157,-89.8956,35.1837
1239,TN,Smith,47159,-85.9567,36.2505
1240,TN,Stewart,47161,-87.8385,36.5012
1241,TN,Sullivan,47163,-82.3042,36.5129
1242,TN,Sumner,47165,-86.4603,36.4694
1243,TN,Trousdale,47169,-86.1567,36.3921
1244,TN,Unicoi,47171,-82.4322,36.1108
1245,TN,Union,47173,-83.8375,36.2879
1246,TN,Van Buren,47175,-85.4525,35.696
1247,TN,Warren,47177,-85.7785,35.6787
1248,TN,Washington,47179,-82.4974,36.2933
1249,TN,Wayne,47181,-87.788,35.2399
1250,TN,Weakley,47183,-88.7178,36.2983
1251,TN,Williamson,47187,-86.8986,35.8938
1252,SC,Barnwell,45011,-81.435,33.2661
1253,NC,Craven,37049,-77.0969,35.1262
1254,GA,Walton,13297,-83.7338,33.7816
1255,NC,Beaufort,37013,-76.8631,35.4947
1256,GA,Bryan,13029,-81.1919,31.7798
1257,SC,Jasper,45053,-81.0321,32.4371
1258,NC,Martin,37117,-77.1072,35.8416
1259,SC,Georgetown,45043,-79.2353,33.2834
1260,SC,Georgetown,45043,-79.3367,33.4408
1261,NC,New Hanover,37129,-77.8921,34.1047
1262,NC,Brunswick,37019,-78.0599,33.9633
1263,NC,New Hanover,37129,-77.8846,34.2422
1264,NC,Brunswick,37019,-78.2441,34.0747
1265,NC,Carteret,37031,-76.6707,34.8306
1266,NC,Onslow,37133,-77.4342,34.7374
1267,NC,Pender,37141,-77.907,34.5255
1268,NC,Pender,37141,-77.6199,34.386
1269,NC,Hyde,37095,-76.2485,35.5318
1270,NC,Washington,37187,-76.5767,35.8221
1271,NC,Tyrrell,37177,-76.2118,35.8161
1272,AL,Calhoun,01015,-85.8261,33.7714
1273,AL,Butler,01013,-86.6803,31.7524
1274,AL,Bullock,01011,-85.7161,32.1005
1275,AL,Blount,01009,-86.5674,33.9809
1276,AL,Bibb,01007,-87.1264,32.9986
1277,AL,Barbour,01005,-85.3932,31.8696
1278,AL,Jackson,01071,-85.9993,34.7794
1279,AL,Cherokee,01019,-85.6038,34.176
1280,AL,Chilton,01021,-86.7188,32.8479
1281,AL,Choctaw,01023,-88.2628,32.0192
1282,AL,Clay,01027,-85.8605,33.2691
1283,AL,Cleburne,01029,-85.5188,33.6745
1284,IL,Winnebago,17201,-89.1609,42.3363
1285,IL,Woodford,17203,-89.2111,40.7882
1286,IL,Grundy,17063,-88.4185,41.285
1287,IL,Adams,17001,-91.1886,39.9878
1288,IL,Alexander,17003,-89.3376,37.1915
1289,IL,Bond,17005,-89.4356,38.8868
1290,IL,Boone,17007,-88.8234,42.3231
1291,IL,Brown,17009,-90.7504,39.9618
1292,IL,Bureau,17011,-89.5287,41.4041
1293,IL,Calhoun,17013,-90.6675,39.1692
1294,IL,Carroll,17015,-89.9345,42.0688
1295,IL,Cass,17017,-90.2474,39.9736
1296,IL,Champaign,17019,-88.1991,40.1401
1297,IL,Christian,17021,-89.2773,39.5458
1298,IL,Clark,17023,-87.7878,39.3335
1299,IL,Clay,17025,-88.4902,38.7542
1300,IL,Clinton,17027,-89.4224,38.6065
1301,IL,Coles,17029,-88.2218,39.5202
1302,IL,Crawford,17033,-87.7595,39.0028
1303,IL,Cumberland,17035,-88.2403,39.2732
1304,IL,De Kalb,17037,-88.7704,41.8934
1305,IL,De Witt,17039,-88.9041,40.1746
1306,IL,Douglas,17041,-88.2174,39.7695
1307,IL,DuPage,17043,-88.0857,41.852
1308,IL,Edgar,17045,-87.7456,39.6786
1309,IL,Edwards,17047,-88.0532,38.4165
1310,IL,Effingham,17049,-88.5899,39.0597
1311,IL,Greene,17061,-90.3905,39.3562
1312,IL,Ford,17053,-88.2233,40.5972
1313,AL,Coffee,01031,-85.9882,31.4026
1314,AL,Colbert,01033,-87.8049,34.7004
1315,AL,Conecuh,01035,-86.9936,31.4293
1316,AL,Coosa,01037,-86.2476,32.9362
1317,AL,Covington,01039,-86.4512,31.2485
1318,AL,Perry,01105,-87.2942,32.6385
1319,AL,Pickens,01107,-88.0887,33.2809
1320,AL,Pike,01109,-85.9409,31.8024
1321,AL,Randolph,01111,-85.4591,33.2938
1322,AL,Russell,01113,-85.1849,32.2884
1323,AL,St. Clair,01115,-86.3147,33.7157
1324,AL,Shelby,01117,-86.6607,33.2643
1325,AL,Sumter,01119,-88.1988,32.591
1326,AL,Talladega,01121,-86.1659,33.38
1327,AL,Tallapoosa,01123,-85.7975,32.8624
1328,AL,Tuscaloosa,01125,-87.525,33.2896
1329,AL,Walker,01127,-87.2973,33.8034
1330,AL,Washington,01129,-88.2071,31.4077
1331,AL,Wilcox,01131,-87.3082,31.9892
1332,AL,Winston,01133,-87.3737,34.1492
1333,AL,Autauga,01001,-86.6428,32.5349
1334,IN,Warren,18171,-87.3533,40.3469
1335,IN,Wabash,18169,-85.794,40.8457
1336,IN,Vigo,18167,-87.39,39.4306
1337,IN,Vermillion,18165,-87.464,39.8538
1338,IN,Marshall,18099,-86.2618,41.325
1339,IN,Marion,18097,-86.1384,39.7816
1340,IN,Madison,18095,-85.7194,40.1617
1341,IN,Lawrence,18093,-86.4834,38.8412
1342,IN,Lagrange,18087,-85.4265,41.6427
1343,IN,Kosciusko,18085,-85.8607,41.2441
1344,IN,Knox,18083,-87.418,38.6891
1345,IN,Johnson,18081,-86.1017,39.4899
1346,IN,Jennings,18079,-85.6281,38.9969
1347,IN,Jefferson,18077,-85.4385,38.7858
1348,IN,Jay,18075,-85.0057,40.438
1349,IN,Jackson,18071,-86.0376,38.9064
1350,IN,Huntington,18069,-85.4881,40.8291
1351,IN,Howard,18067,-86.117,40.4836
1352,IN,Henry,18065,-85.3964,39.931
1353,IN,Hendricks,18063,-86.51,39.7695
1354,IN,Harrison,18061,-86.1113,38.1952
1355,IN,Hancock,18059,-85.7732,39.8235
1356,IN,Hamilton,18057,-86.052,40.0725
1357,IN,Greene,18055,-86.962,39.0364
1358,IN,Grant,18053,-85.6548,40.5158
1359,IN,Gibson,18051,-87.5846,38.3118
1360,IN,Fulton,18049,-86.2636,41.047
1361,IN,Franklin,18047,-85.0603,39.4148
1362,IN,Fountain,18045,-87.2419,40.1209
1363,IN,Floyd,18043,-85.9068,38.3194
1364,IN,Adams,18001,-84.9366,40.7456
1365,IN,Allen,18003,-85.0665,41.0908
1366,IN,Bartholomew,18005,-85.8977,39.2059
1367,IN,Benton,18007,-87.3109,40.6063
1368,IN,Blackford,18009,-85.3248,40.4735
1369,IN,Boone,18011,-86.4687,40.0508
1370,IN,Brown,18013,-86.2274,39.1962
1371,IN,Carroll,18015,-86.5635,40.5829
1372,IN,Cass,18017,-86.346,40.7615
1373,IN,Clark,18019,-85.7073,38.4773
1374,IN,Whitley,18183,-85.5052,41.1394
1375,IN,Clinton,18023,-86.4752,40.3017
1376,IN,Crawford,18025,-86.4517,38.2923
1377,IN,Daviess,18027,-87.0721,38.7024
1378,IN,Dearborn,18029,-84.9733,39.1453
1379,IN,Decatur,18031,-85.5013,39.3069
1380,IN,De Kalb,18033,-84.9991,41.3976
1381,IN,Delaware,18035,-85.3969,40.2275
1382,IN,Dubois,18037,-86.8798,38.3643
1383,IN,Elkhart,18039,-85.8587,41.5974
1384,IN,Fayette,18041,-85.1787,39.6401
1385,IN,Wayne,18177,-85.0099,39.8644
1386,IN,Wells,18179,-85.2212,40.7291
1387,IN,White,18181,-86.8654,40.7499
1388,IN,Clay,18021,-87.1158,39.3928
1389,IN,Warrick,18173,-87.2721,38.0922
1390,IN,Ripley,18137,-85.2624,39.1034
1391,KY,Jefferson,21111,-85.6595,38.1872
1392,KY,Jessamine,21113,-84.5809,37.872
1393,KY,Johnson,21115,-82.8314,37.8467
1394,KY,Kenton,21117,-84.5331,38.9334
1395,KY,Knott,21119,-82.954,37.354
1396,KY,Knox,21121,-83.8539,36.8907
1397,KY,Larue,21123,-85.698,37.5457
1398,KY,Jackson,21109,-84.0058,37.4198
1399,KY,Lawrence,21127,-82.7347,38.0679
1400,KY,Leslie,21131,-83.3811,37.0941
1401,KY,Letcher,21133,-82.8553,37.1212
1402,KY,Lewis,21135,-83.3781,38.5317
1403,KY,Lincoln,21137,-84.6607,37.4552
1404,KY,Livingston,21139,-88.3536,37.2097
1405,KY,Logan,21141,-86.8789,36.8597
1406,KY,Lyon,21143,-88.0832,37.0191
1407,KY,McCracken,21145,-88.7127,37.0539
1408,KY,McCreary,21147,-84.4841,36.7371
1409,KY,McLean,21149,-87.2636,37.5291
1410,MS,Madison,28089,-90.0338,32.6347
1411,MS,Lowndes,28087,-88.4433,33.4729
1412,MS,Lincoln,28085,-90.454,31.5324
1413,MS,Leflore,28083,-90.301,33.5505
1414,MS,Lee,28081,-88.6804,34.2899
1415,MS,Leake,28079,-89.5241,32.7535
1416,MS,Lawrence,28077,-90.107,31.5502
1417,MS,Lauderdale,28075,-88.6626,32.4043
1418,MS,Lamar,28073,-89.5087,31.2059
1419,MS,Lafayette,28071,-89.4849,34.3568
1420,MS,Kemper,28069,-88.6412,32.7546
1421,MS,Jones,28067,-89.1688,31.6226
1422,MS,Jefferson Davis,28065,-89.823,31.5696
1423,MS,Jefferson,28063,-91.0371,31.7342
1424,MS,Itawamba,28057,-88.3613,34.28
1425,MS,Issaquena,28055,-90.9892,32.7414
1426,MS,Humphreys,28053,-90.5265,33.1287
1427,MS,Holmes,28051,-90.0922,33.1235
1428,MS,Hinds,28049,-90.4427,32.2667
1429,MS,Grenada,28043,-89.802,33.77
1430,MS,Greene,28041,-88.6392,31.2142
1431,MS,George,28039,-88.644,30.8626
1432,MS,Franklin,28037,-90.8978,31.4772
1433,MS,DeSoto,28033,-89.9918,34.8754
1434,MS,Covington,28031,-89.5526,31.6332
1435,MS,Copiah,28029,-90.4488,31.8692
1436,TN,Wilson,47189,-86.2976,36.1549
1437,TN,White,47185,-85.4553,35.9264
1438,TN,Dickson,47043,-87.3567,36.1491
1439,TN,Loudon,47105,-84.3116,35.735
1440,TN,Anderson,47001,-84.1985,36.1184
1441,TN,Bedford,47003,-86.4589,35.5138
1442,TN,Benton,47005,-88.0683,36.0698
1443,TN,Bledsoe,47007,-85.2051,35.5964
1444,TN,Bradley,47011,-84.8596,35.1541
1445,TN,Campbell,47013,-84.1493,36.4036
1446,TN,Cannon,47015,-86.0617,35.8087
1447,TN,Carroll,47017,-88.4503,35.9731
1448,TN,Cheatham,47021,-87.0868,36.2612
1449,TN,Chester,47023,-88.6128,35.4211
1450,TN,Claiborne,47025,-83.6603,36.4859
1451,TN,Clay,47027,-85.5438,36.5511
1452,TN,Coffee,47031,-86.0748,35.4906
1453,TN,Crockett,47033,-89.1395,35.8135
1454,TN,Cumberland,47035,-84.9983,35.9504
1455,TN,Davidson,47037,-86.7848,36.1694
1456,TN,Decatur,47039,-88.1088,35.603
1457,TN,De Kalb,47041,-85.8328,35.9798
1458,TN,Dyer,47045,-89.4138,36.059
1459,TN,Fayette,47047,-89.4144,35.1971
1460,TN,Fentress,47049,-84.9324,36.3805
1461,TN,Franklin,47051,-86.0922,35.1549
1462,TN,Gibson,47053,-88.9326,35.9966
1463,TN,Giles,47055,-87.0348,35.2022
1464,TN,Grainger,47057,-83.5096,36.2762
1465,TN,Grundy,47061,-85.7226,35.3884
1466,TN,Hamblen,47063,-83.2666,36.2172
1467,TN,Hamilton,47065,-85.1648,35.1809
1468,TN,Hancock,47067,-83.2219,36.5236
1469,TN,Hardeman,47069,-88.9931,35.2069
1470,TN,Hardin,47071,-88.1845,35.1987
1471,TN,Hawkins,47073,-82.9447,36.4412
1472,TN,Haywood,47075,-89.2838,35.5832
1473,TN,Henderson,47077,-88.388,35.6543
1474,TN,Henry,47079,-88.3013,36.3317
1475,TN,Hickman,47081,-87.4733,35.8033
1476,TN,Houston,47083,-87.7171,36.286
1477,TN,Humphreys,47085,-87.7757,36.0408
1478,TN,Jackson,47087,-85.6732,36.3592
1479,TN,Jefferson,47089,-83.4463,36.051
1480,TN,Johnson,47091,-81.8518,36.4549
1481,TN,Knox,47093,-83.9371,35.9932
1482,TN,Lake,47095,-89.4935,36.3352
1483,TN,Lauderdale,47097,-89.6314,35.7609
1484,TN,Lawrence,47099,-87.3956,35.2173
1485,ND,Divide,38023,-103.4873,48.8149
1486,ND,Eddy,38027,-98.9016,47.7176
1487,ND,Emmons,38029,-100.2388,46.2851
1488,ND,Foster,38031,-98.8831,47.4571
1489,ND,Golden Valley,38033,-103.8467,46.9402
1490,ND,Grand Forks,38035,-97.457,47.9219
1491,ND,Grant,38037,-101.6397,46.3583
1492,ND,Griggs,38039,-98.2371,47.4572
1493,ND,Hettinger,38041,-102.4603,46.4326
1494,ND,Kidder,38043,-99.7801,46.9802
1495,ND,LaMoure,38045,-98.5355,46.4569
1496,ND,Logan,38047,-99.4775,46.4574
1497,ND,McHenry,38049,-100.6363,48.2346
1498,ND,McIntosh,38051,-99.4412,46.1119
1499,ND,McLean,38055,-101.3219,47.607
1500,ND,Mercer,38057,-101.8315,47.3092
1501,ND,Mountrail,38061,-102.3556,48.2013
1502,ND,Nelson,38063,-98.1921,47.9216
1503,ND,Oliver,38065,-101.3403,47.1153
1504,ND,Pembina,38067,-97.5517,48.7672
1505,ND,Pierce,38069,-99.9718,48.2496
1506,ND,Ramsey,38071,-98.7201,48.2689
1507,ND,Ransom,38073,-97.6575,46.4561
1508,ND,Renville,38075,-101.6581,48.7192
1509,ND,Rolette,38079,-99.8411,48.7724
1510,ND,Sargent,38081,-97.6306,46.1078
1511,ND,Sheridan,38083,-100.3456,47.5754
1512,ND,Slope,38087,-103.4599,46.4472
1513,ND,Stark,38089,-102.655,46.8107
1514,ND,Steele,38091,-97.7247,47.4562
1515,ND,Stutsman,38093,-98.9588,46.9792
1516,ND,Towner,38095,-99.2459,48.6856
1517,ND,Traill,38097,-97.1615,47.4542
1518,NJ,Cape May,34009,-74.8072,39.1519
1519,NJ,Monmouth,34025,-74.2257,40.259
1520,NJ,Atlantic,34001,-74.6766,39.4825
1521,NJ,Ocean,34029,-74.2988,39.9092
1522,NJ,Salem,34033,-75.3459,39.5873
1523,NJ,Cumberland,34011,-75.1099,39.3736
1524,MD,Talbot,24041,-76.0892,38.7767
1525,MD,Talbot,24041,-76.1393,38.7175
1526,MD,Kent,24029,-76.1294,39.1885
1527,MD,Cecil,24015,-75.974,39.5101
1528,VA,City of Williamsburg,51830,-76.7074,37.2691
1529,VA,City of Norfolk,51710,-76.2711,36.8313
1530,VA,City of Portsmouth,51740,-76.3548,36.8449
1531,VA,City of Norfolk,51710,-76.2552,36.8966
1532,MD,Queen Anne's,24035,-76.1834,38.989
1533,CO,Denver,08031,-104.8772,39.7611
1534,CA,Santa Barbara,06083,-120.0165,34.6731
1535,CA,San Bernardino,06071,-116.1784,34.8415
1536,LA,St. Mary,22101,-91.4494,29.7196
1537,TN,Lewis,47101,-87.4931,35.5273
1538,TN,Lincoln,47103,-86.5889,35.1405
1539,TN,McMinn,47107,-84.6175,35.4248
1540,TN,McNairy,47109,-88.5637,35.1746
1541,TN,Macon,47111,-86.0072,36.532
1542,TN,Madison,47113,-88.8385,35.6082
1543,TN,Marion,47115,-85.622,35.1294
1544,TN,Marshall,47117,-86.765,35.4689
1545,TN,Tipton,47167,-89.7594,35.4966
1546,TN,Moore,47127,-86.3588,35.2847
1547,TN,Montgomery,47125,-87.3828,36.4969
1548,TN,Meigs,47121,-84.8135,35.5127
1549,TN,Maury,47119,-87.077,35.617
1550,TN,Obion,47131,-89.1488,36.3582
1551,TN,Morgan,47129,-84.6491,36.135
1552,MS,Hancock,28045,-89.4887,30.4164
1553,MI,Leelanau,26089,-85.8123,44.9366
1554,IN,Lake,18089,-87.3817,41.4156
1555,IN,La Porte,18091,-86.74,41.546
1556,MI,Berrien,26021,-86.4123,41.9546
1557,MI,Van Buren,26159,-86.0189,42.2513
1558,MI,Allegan,26005,-85.8884,42.5913
1559,MI,Alpena,26007,-83.6277,45.0348
1560,MI,Sanilac,26151,-82.8201,43.4235
1561,MI,Macomb,26099,-82.9322,42.6956
1562,MI,St. Clair,26147,-82.6823,42.9425
1563,MI,Gogebic,26053,-89.6944,46.4089
1564,AL,Chambers,01017,-85.392,32.9144
1565,MI,Monroe,26115,-83.5373,41.9292
1566,AL,Clarke,01025,-87.8309,31.6709
1567,MS,Jackson,28059,-88.6362,30.5459
1568,AL,Henry,01067,-85.2414,31.5147
1569,TN,Monroe,47123,-84.2528,35.4428
1570,TN,Cocke,47029,-83.1211,35.9254
1571,TN,Sevier,47155,-83.5242,35.7847
1572,TN,Carter,47019,-82.1274,36.2927
1573,TN,Greene,47059,-82.8458,36.1754
1574,TN,Blount,47009,-83.9255,35.6873
1575,TN,Polk,47139,-84.5233,35.1199
1576,AL,Baldwin,01003,-87.7171,30.7278
1577,MI,Wayne,26163,-83.2865,42.284
1578,MS,Harrison,28047,-89.1185,30.515
1579,MI,Keweenaw,26083,-88.4287,47.6104
1580,MI,Mason,26105,-86.2497,43.9954
1581,MI,Oceana,26127,-86.2673,43.6407
1582,MI,Oceana,26127,-86.4212,43.7692
1583,MI,Muskegon,26121,-86.1481,43.2912
1584,MI,Muskegon,26121,-86.3219,43.2922
1585,MI,Ottawa,26139,-86.1799,42.9435
1586,MI,Ottawa,26139,-85.9939,42.9601
1587,MI,Baraga,26013,-88.3652,46.6626
1588,MI,Marquette,26103,-87.6415,46.4314
1589,MI,Cheboygan,26031,-84.4999,45.4468
1590,MI,Charlevoix,26029,-85.1283,45.302
1591,MI,Grand Traverse,26055,-85.559,44.6709
1592,MI,Delta,26041,-86.9244,45.9197
1593,MI,Luce,26095,-85.5443,46.4707
1594,MI,Mackinac,26097,-85.0921,46.0812
1595,MI,Schoolcraft,26153,-86.1995,46.1967
1596,MI,Presque Isle,26141,-83.9173,45.3402
1597,MI,Menominee,26109,-87.5573,45.5792
1598,MI,Alger,26003,-86.6018,46.4099
1599,MI,Ontonagon,26131,-89.315,46.6644
1600,MI,Houghton,26061,-88.6918,46.8934
1601,MI,Antrim,26009,-85.1377,45.0003
1602,MI,Arenac,26011,-83.8948,44.0656
1603,MI,Bay,26017,-83.9921,43.7072
1604,MI,Tuscola,26157,-83.4168,43.4641
1605,MI,Huron,26063,-83.0193,43.8333
1606,MI,Emmet,26047,-84.8905,45.5205
1607,MI,Benzie,26019,-86.0158,44.6395
1608,AL,Mobile,01097,-88.2018,30.7943
1609,MI,Mason,26105,-86.4421,43.9392
1610,MS,Pike,28113,-90.4042,31.1749
1611,AR,Ashley,05003,-91.7679,33.1912
1612,AR,Baxter,05005,-92.337,36.2872
1613,AR,Benton,05007,-94.2573,36.3392
1614,AR,Arkansas,05001,-91.3749,34.2908
1615,AR,Bradley,05011,-92.1623,33.4659
1616,AR,Calhoun,05013,-92.5031,33.558
1617,AR,Carroll,05015,-93.5382,36.341
1618,AR,Chicot,05017,-91.294,33.2672
1619,AR,Clark,05019,-93.1764,34.051
1620,AR,Clay,05021,-90.4173,36.3685
1621,AR,Cleburne,05023,-92.0267,35.5381
1622,AR,Cleveland,05025,-92.1852,33.8983
1623,AR,Columbia,05027,-93.2274,33.2143
1624,AR,Conway,05029,-92.7014,35.2622
1625,AR,Craighead,05031,-90.6328,35.8308
1626,AR,Crawford,05033,-94.243,35.5889
1627,AR,Crittenden,05035,-90.3089,35.2079
1628,AR,Cross,05037,-90.7713,35.2958
1629,AR,Dallas,05039,-92.6545,33.9698
1630,AR,Desha,05041,-91.254,33.8333
1631,AR,Drew,05043,-91.72,33.5895
1632,AR,Faulkner,05045,-92.332,35.147
1633,AR,Franklin,05047,-93.8906,35.5123
1634,AR,Fulton,05049,-91.8183,36.3817
1635,AR,Garland,05051,-93.1504,34.5767
1636,AR,Grant,05053,-92.4236,34.29
1637,IA,Wayne,19185,-93.3274,40.7395
1638,IA,Washington,19183,-91.7179,41.3356
1639,IA,Warren,19181,-93.5614,41.3343
1640,IA,Wapello,19179,-92.4095,41.0306
1641,IA,Van Buren,19177,-91.95,40.7532
1642,IA,Union,19175,-94.2424,41.0277
1643,IA,Taylor,19173,-94.6965,40.7374
1644,IA,Tama,19171,-92.5326,42.0798
1645,IA,Story,19169,-93.4651,42.0362
1646,IA,Sioux,19167,-96.1779,43.0826
1647,IA,Shelby,19165,-95.3103,41.6851
1648,IA,Iowa,19095,-92.0656,41.6863
1649,IA,Ida,19093,-95.5136,42.3869
1650,IA,Humboldt,19091,-94.2073,42.7764
1651,IA,Howard,19089,-92.3172,43.3568
1652,IA,Henry,19087,-91.5446,40.9879
1653,IA,Harrison,19085,-95.8167,41.6829
1654,IA,Hardin,19083,-93.2404,42.3838
1655,IA,Hancock,19081,-93.7343,43.0819
1656,IA,Hamilton,19079,-93.7068,42.3838
1657,IA,Guthrie,19077,-94.501,41.6838
1658,IA,Grundy,19075,-92.7911,42.402
1659,IA,Greene,19073,-94.3969,42.0362
1660,IA,Fremont,19071,-95.6047,40.7456
1661,IA,Franklin,19069,-93.2624,42.7325
1662,IA,Floyd,19067,-92.789,43.06
1663,IA,Fayette,19065,-91.8443,42.8625
1664,IA,Emmet,19063,-94.6784,43.3779
1665,IA,Dubuque,19061,-90.8824,42.4689
1666,IA,Dickinson,19059,-95.151,43.3779
1667,IA,Des Moines,19057,-91.1815,40.9232
1668,IA,Delaware,19055,-91.3673,42.4711
1669,IA,Adair,19001,-94.471,41.3307
1670,IA,Adams,19003,-94.6992,41.029
1671,IA,Allamakee,19005,-91.3781,43.2843
1672,IA,Appanoose,19007,-92.8687,40.7432
1673,IA,Audubon,19009,-94.9058,41.6846
1674,IA,Benton,19011,-92.0657,42.0801
1675,IA,Black Hawk,19013,-92.3085,42.4701
1676,IA,Boone,19015,-93.9318,42.0366
1677,IA,Bremer,19017,-92.3182,42.7747
1678,IA,Buchanan,19019,-91.8379,42.4707
1679,IA,Buena Vista,19021,-95.1513,42.7355
1680,IA,Butler,19023,-92.7902,42.7316
1681,IA,Calhoun,19025,-94.6405,42.3852
1682,IA,Carroll,19027,-94.8607,42.0362
1683,IA,Cass,19029,-94.9278,41.3315
1684,IA,Cedar,19031,-91.1324,41.7723
1685,IA,Cerro Gordo,19033,-93.2608,43.0815
1686,IA,Cherokee,19035,-95.6239,42.7357
1687,IA,Chickasaw,19037,-92.3176,43.0601
1688,IA,Clarke,19039,-93.7851,41.029
1689,IA,Clay,19041,-95.151,43.0826
1690,IA,Clayton,19043,-91.3414,42.8447
1691,IL,Menard,17129,-89.8022,40.0274
1692,IL,Mercer,17131,-90.7414,41.2053
1693,IL,Monroe,17133,-90.1774,38.2785
1694,IL,Montgomery,17135,-89.4789,39.231
1695,IL,Morgan,17137,-90.2015,39.7156
1696,IL,Moultrie,17139,-88.6194,39.6413
1697,IL,Ogle,17141,-89.3207,42.0427
1698,IL,Peoria,17143,-89.76,40.7881
1699,IL,Perry,17145,-89.3671,38.0838
1700,IL,Piatt,17147,-88.5911,40.0104
1701,IL,Pike,17149,-90.8862,39.6225
1702,IL,Pope,17151,-88.5615,37.4127
1703,IL,Pulaski,17153,-89.1267,37.2228
1704,IL,Putnam,17155,-89.2858,41.2045
1705,IL,Fayette,17051,-89.0242,39.0002
1706,IL,Randolph,17157,-89.8253,38.0521
1707,IL,Richland,17159,-88.085,38.7124
1708,IL,Rock Island,17161,-90.5674,41.4673
1709,IL,St. Clair,17163,-89.9284,38.4703
1710,IL,Saline,17165,-88.5408,37.7533
1711,IL,Sangamon,17167,-89.6589,39.7582
1712,IL,Schuyler,17169,-90.6151,40.158
1713,IL,Scott,17171,-90.4747,39.6442
1714,IL,Shelby,17173,-88.8055,39.3911
1715,IL,Stark,17175,-89.7975,41.0934
1716,IL,Stephenson,17177,-89.6625,42.3517
1717,IL,Tazewell,17179,-89.5134,40.5075
1718,IL,Union,17181,-89.2551,37.4712
1719,IL,Vermilion,17183,-87.7329,40.1836
1720,IL,Wabash,17185,-87.8443,38.4461
1721,IL,Warren,17187,-90.615,40.8488
1722,IL,Washington,17189,-89.4105,38.3522
1723,IL,Wayne,17191,-88.4256,38.4295
1724,IL,White,17193,-88.1795,38.0875
1725,IL,Whiteside,17195,-89.9141,41.7564
1726,IL,Will,17197,-87.9787,41.445
1727,IL,Williamson,17199,-88.9299,37.7303
1728,IL,Franklin,17055,-88.9242,37.9923
1729,IL,Fulton,17057,-90.2075,40.4728
1730,IL,Gallatin,17059,-88.2305,37.7628
1731,IL,Henderson,17071,-90.9251,40.8181
1732,IL,Hardin,17069,-88.2669,37.5182
1733,IL,Hancock,17067,-91.1647,40.4037
1734,IL,Hamilton,17065,-88.5391,38.0816
1735,IL,Lee,17103,-89.3005,41.7461
1736,IL,Knox,17095,-90.2133,40.9318
1737,MN,Lake of the Woods,27077,-94.9048,48.7718
1738,MN,Lac qui Parle,27073,-96.1735,44.9955
1739,MN,Anoka,27003,-93.2464,45.2732
1740,MN,Benton,27009,-93.9989,45.6991
1741,MN,Brown,27015,-94.7277,44.2421
1742,MN,St. Louis,27137,-92.4708,47.604
1743,MN,Carver,27019,-93.8025,44.8208
1744,MN,Chippewa,27023,-95.5666,45.0223
1745,MN,Chisago,27025,-92.9083,45.5025
1746,MN,Cottonwood,27033,-95.1812,44.0071
1747,MN,Crow Wing,27035,-94.0709,46.4824
1748,MN,Dakota,27037,-93.0656,44.6718
1749,MN,Dodge,27039,-92.862,44.0225
1750,MN,Douglas,27041,-95.4535,45.9337
1751,MN,Faribault,27043,-93.9478,43.6739
1752,MN,Fillmore,27045,-92.0901,43.674
1753,MN,Freeborn,27047,-93.3489,43.6738
1754,MN,Goodhue,27049,-92.7225,44.4099
1755,MN,Grant,27051,-96.0121,45.934
1756,MN,Hennepin,27053,-93.4768,45.0045
1757,MN,Houston,27055,-91.4929,43.6714
1758,MN,Hubbard,27057,-94.9166,47.1087
1759,MN,Isanti,27059,-93.2952,45.5615
1760,MN,Jackson,27063,-95.1541,43.6741
1761,MN,Kanabec,27065,-93.2935,45.9453
1762,MN,Kandiyohi,27067,-95.0048,45.1524
1763,MN,Kittson,27069,-96.7826,48.7766
1764,MN,Le Sueur,27079,-93.73,44.3714
1765,MN,Lincoln,27081,-96.267,44.4126
1766,MN,Lyon,27083,-95.839,44.4135
1767,MN,McLeod,27085,-94.2724,44.8235
1768,MN,Mahnomen,27087,-95.809,47.3252
1769,MN,Martin,27091,-94.5511,43.6742
1770,MN,Meeker,27093,-94.5274,45.1231
1771,MN,Mille Lacs,27095,-93.6301,45.938
1772,MN,Morrison,27097,-94.2684,46.0126
1773,MN,Mower,27099,-92.7525,43.6714
1774,MN,Murray,27101,-95.7632,44.0221
1775,MN,Nicollet,27103,-94.2474,44.35
1776,MN,Nobles,27105,-95.7534,43.6742
1777,MN,Norman,27107,-96.4551,47.3265
1778,MN,Olmsted,27109,-92.4018,44.0036
1779,MN,Pennington,27113,-96.0367,48.0662
1780,MN,Pine,27115,-92.7414,46.1208
1781,MN,Pipestone,27117,-96.2586,44.023
1782,MN,Pope,27121,-95.4445,45.5861
1783,MN,Ramsey,27123,-93.0994,45.0171
1784,MN,Red Lake,27125,-96.0953,47.8717
1785,MN,Redwood,27127,-95.2539,44.4037
1786,MN,Renville,27129,-94.9472,44.7268
1787,MN,Rice,27131,-93.2966,44.3541
1788,MN,Rock,27133,-96.2532,43.6747
1789,MN,Roseau,27135,-95.8107,48.7751
1790,MN,Scott,27139,-93.5358,44.6484
1791,MN,Sherburne,27141,-93.7745,45.4439
1792,MN,Sibley,27143,-94.2321,44.5795
1793,MN,Stearns,27145,-94.613,45.5522
1794,MN,Steele,27147,-93.226,44.0223
1795,MN,Stevens,27149,-96.0003,45.5861
1796,MN,Swift,27151,-95.6813,45.2827
1797,MN,Todd,27153,-94.8976,46.0706
1798,MN,Traverse,27155,-96.4716,45.7721
1799,MN,Wabasha,27157,-92.2303,44.2842
1800,MN,Wadena,27159,-94.9693,46.5858
1801,MN,Waseca,27161,-93.5873,44.0221
1802,MN,Washington,27163,-92.8839,45.0383
1803,MN,Watonwan,27165,-94.6141,43.9783
1804,MN,Winona,27169,-91.7791,43.9869
1805,MN,Wright,27171,-93.963,45.1739
1806,MN,Yellow Medicine,27173,-95.8683,44.7162
1807,MN,Big Stone,27011,-96.411,45.4261
1808,MN,Blue Earth,27013,-94.0671,44.0346
1809,MO,Barton,29011,-94.3471,37.5023
1810,MO,Bates,29013,-94.34,38.2573
1811,MO,Benton,29015,-93.2879,38.2948
1812,MO,Bollinger,29017,-90.0259,37.3222
1813,MO,Boone,29019,-92.3096,38.9907
1814,MO,Buchanan,29021,-94.8062,39.6598
1815,MO,Butler,29023,-90.4065,36.7164
1816,MO,Caldwell,29025,-93.9828,39.6557
1817,MO,Callaway,29027,-91.926,38.8355
1818,MO,Camden,29029,-92.766,38.0271
1819,MO,Cape Girardeau,29031,-89.6845,37.3839
1820,MO,Carroll,29033,-93.5052,39.4268
1821,MO,Carter,29035,-90.9623,36.9413
1822,MO,Cass,29037,-94.3548,38.647
1823,MO,Cedar,29039,-93.8566,37.7238
1824,MO,Chariton,29041,-92.9626,39.5145
1825,MO,Christian,29043,-93.1889,36.9696
1826,MO,Clark,29045,-91.7384,40.4104
1827,MO,Clay,29047,-94.4208,39.3105
1828,MO,Clinton,29049,-94.4046,39.6018
1829,MO,Cole,29051,-92.2816,38.5055
1830,MO,Cooper,29053,-92.8103,38.8439
1831,MO,Crawford,29055,-91.304,37.9764
1832,MO,Daviess,29061,-93.9855,39.9607
1833,MO,DeKalb,29063,-94.4047,39.8932
1834,MO,Dent,29065,-91.5079,37.6066
1835,MO,Douglas,29067,-92.4988,36.9326
1836,MO,Dunklin,29069,-90.0909,36.2718
1837,MO,Franklin,29071,-91.075,38.4112
1838,MO,Gasconade,29073,-91.5079,38.4409
1839,MO,Gentry,29075,-94.4099,40.2121
1840,MO,Greene,29077,-93.342,37.2581
1841,MO,Grundy,29079,-93.5653,40.114
1842,MO,Harrison,29081,-93.9921,40.3547
1843,MO,Henry,29083,-93.7927,38.3852
1844,MO,Hickory,29085,-93.3207,37.9408
1845,MO,Holt,29087,-95.215,40.0946
1846,MO,Howard,29089,-92.6958,39.1428
1847,MO,Howell,29091,-91.8865,36.774
1848,MO,Iron,29093,-90.7735,37.5552
1849,MO,Jackson,29095,-94.3461,39.0085
1850,MO,Jefferson,29099,-90.5378,38.261
1851,MO,Johnson,29101,-93.8063,38.7441
1852,MO,Knox,29103,-92.1481,40.1282
1853,MO,Laclede,29105,-92.5903,37.6583
1854,MO,Lafayette,29107,-93.7855,39.0656
1855,MO,Barry,29009,-93.8291,36.7099
1856,MO,Lewis,29111,-91.7222,40.0969
1857,MO,Lincoln,29113,-90.9602,39.0581
1858,MO,Linn,29115,-93.1072,39.8702
1859,MO,Livingston,29117,-93.5483,39.7821
1860,MO,McDonald,29119,-94.3484,36.6287
1861,MO,Macon,29121,-92.5646,39.8308
1862,MO,Madison,29123,-90.345,37.4781
1863,MO,Maries,29125,-91.9249,38.1616
1864,MO,Marion,29127,-91.6224,39.806
1865,MO,Mercer,29129,-93.5685,40.4223
1866,MO,Miller,29131,-92.4284,38.2145
1867,MO,Mississippi,29133,-89.2911,36.8281
1868,MO,Moniteau,29135,-92.583,38.6327
1869,MO,Monroe,29137,-92.0007,39.4955
1870,MO,Montgomery,29139,-91.4702,38.9415
1871,MO,Morgan,29141,-92.8861,38.4239
1872,MO,New Madrid,29143,-89.6516,36.5942
1873,MO,Newton,29145,-94.3392,36.9055
1874,MO,Nodaway,29147,-94.8834,40.3607
1875,MO,Oregon,29149,-91.4033,36.6867
1876,MO,Osage,29151,-91.8618,38.4604
1877,MO,Ozark,29153,-92.4446,36.6493
1878,MO,Pemiscot,29155,-89.7858,36.2111
1879,MO,Perry,29157,-89.8244,37.7071
1880,MO,Pettis,29159,-93.2851,38.7283
1881,MO,Phelps,29161,-91.7924,37.8771
1882,MO,Pike,29163,-91.1714,39.3438
1883,MO,Platte,29165,-94.7736,39.3804
1884,MO,Polk,29167,-93.4005,37.6165
1885,MO,Pulaski,29169,-92.2076,37.8246
1886,MO,Putnam,29171,-93.0161,40.4789
1887,MO,Ralls,29173,-91.5219,39.5276
1888,MO,Randolph,29175,-92.4971,39.4402
1889,MO,Ray,29177,-93.9899,39.3524
1890,MO,Reynolds,29179,-90.9691,37.3623
1891,MO,Ripley,29181,-90.8639,36.6528
1892,MO,St. Charles,29183,-90.6752,38.7819
1893,MO,St. Clair,29185,-93.776,38.0371
1894,MO,Ste. Genevieve,29186,-90.1952,37.894
1895,MO,St. Francois,29187,-90.4729,37.8104
1896,MO,St. Louis,29189,-90.443,38.6407
1897,MO,Saline,29195,-93.2022,39.1366
1898,MO,Schuyler,29197,-92.5209,40.4703
1899,MO,Scotland,29199,-92.1471,40.4526
1900,MO,Scott,29201,-89.5686,37.053
1901,MO,Shannon,29203,-91.4005,37.1574
1902,MO,Shelby,29205,-92.0766,39.7978
1903,MO,Stoddard,29207,-89.9444,36.8555
1904,MO,Stone,29209,-93.4559,36.7469
1905,MO,Sullivan,29211,-93.1115,40.2107
1906,MO,Taney,29213,-93.041,36.6547
1907,MO,Texas,29215,-91.9651,37.3173
1908,MO,Vernon,29217,-94.3424,37.8506
1909,MO,Warren,29219,-91.1607,38.7646
1910,MO,Washington,29221,-90.8774,37.9617
1911,MO,Wayne,29223,-90.4614,37.1127
1912,MO,Webster,29225,-92.8759,37.2809
1913,MO,Worth,29227,-94.4222,40.4791
1914,MO,Wright,29229,-92.4687,37.2701
1915,MO,St. Louis City,29510,-90.245,38.6358
1916,MO,Dade,29057,-93.8502,37.432
1917,MO,Dallas,29059,-93.0236,37.6804
1918,MO,Adair,29001,-92.6007,40.1906
1919,MO,Andrew,29003,-94.8021,39.9834
1920,MO,Atchison,29005,-95.427,40.4307
1921,MO,Audrain,29007,-91.8416,39.2158
1922,MO,Lawrence,29109,-93.8329,37.1063
1923,WI,Milwaukee,55079,-87.9667,43.0071
1924,WI,Racine,55101,-88.0551,42.7477
1925,WI,Adams,55001,-89.7706,43.9696
1926,WI,Barron,55005,-91.8484,45.4238
1927,WI,Buffalo,55011,-91.7545,44.3799
1928,WI,Burnett,55013,-92.3675,45.8627
1929,WI,Calumet,55015,-88.218,44.0817
1930,WI,Chippewa,55017,-91.2799,45.0694
1931,WI,Clark,55019,-90.6121,44.7347
1932,WI,Columbia,55021,-89.3338,43.4665
1933,WI,Crawford,55023,-90.931,43.2395
1934,WI,Dane,55025,-89.4183,43.0674
1935,WI,Dodge,55027,-88.7075,43.4164
1936,WI,Dunn,55033,-91.8964,44.9466
1937,WI,Eau Claire,55035,-91.2861,44.7268
1938,WI,Florence,55037,-88.3982,45.8484
1939,WI,Fond du Lac,55039,-88.4883,43.7536
1940,WI,Forest,55041,-88.7704,45.6673
1941,WI,Grant,55043,-90.7062,42.8675
1942,WI,Green,55045,-89.6022,42.6799
1943,WI,Green Lake,55047,-89.045,43.8003
1944,WI,Iowa,55049,-90.1354,43.0005
1945,WI,Jackson,55053,-90.8052,44.3191
1946,WI,Jefferson,55055,-88.7759,43.0209
1947,WI,Juneau,55057,-90.114,43.9245
1948,WI,La Crosse,55063,-91.1152,43.9065
1949,WI,Lafayette,55065,-90.1317,42.6605
1950,WI,Langlade,55067,-89.0719,45.2624
1951,WI,Lincoln,55069,-89.7346,45.3375
1952,WI,Marathon,55073,-89.759,44.8983
1953,WI,Marquette,55077,-89.3988,43.8196
1954,WI,Waushara,55137,-89.2429,44.1131
1955,WI,Menominee,55078,-88.71,45.0044
1956,WI,Monroe,55081,-90.6179,43.9457
1957,WI,Oneida,55085,-89.5217,45.7056
1958,WI,Outagamie,55087,-88.4649,44.4161
1959,WI,Pepin,55091,-92.0017,44.5829
1960,WI,Waupaca,55135,-88.9648,44.4704
1961,WI,Waukesha,55133,-88.3045,43.0181
1962,WI,Washburn,55129,-91.7912,45.8993
1963,WI,Walworth,55127,-88.5419,42.6685
1964,WI,Vilas,55125,-89.5148,46.0529
1965,WI,Vernon,55123,-90.8344,43.5939
1966,WI,Trempealeau,55121,-91.3585,44.304
1967,WI,Taylor,55119,-90.5012,45.2115
1968,WI,Shawano,55115,-88.7656,44.7892
1969,WI,Sawyer,55113,-91.1447,45.88
1970,WI,Sauk,55111,-89.9484,43.4268
1971,WI,St. Croix,55109,-92.4528,45.034
1972,WI,Rusk,55107,-91.1331,45.4751
1973,WI,Rock,55105,-89.0716,42.6712
1974,WI,Richland,55103,-90.4295,43.3756
1975,WI,Price,55099,-90.3614,45.6804
1976,WI,Portage,55097,-89.5015,44.476
1977,WI,Polk,55095,-92.4414,45.4614
1978,WI,Pierce,55093,-92.4225,44.7196
1979,WI,Winnebago,55139,-88.6446,44.0689
1980,WI,Wood,55141,-90.0416,44.4553
1981,WI,Kenosha,55059,-88.0418,42.5767
1982,WI,Washington,55131,-88.2308,43.3684
1983,IL,Lake,17097,-88.0036,42.3231
1984,IL,Cook,17031,-87.8167,41.8399
1985,WI,Manitowoc,55071,-87.8096,44.1198
1986,WI,Brown,55009,-88.0032,44.4537
1987,WI,Door,55029,-87.3173,44.9436
1988,WI,Kewaunee,55061,-87.6154,44.5161
1989,MN,Clay,27027,-96.4906,46.8924
1990,MN,Koochiching,27071,-93.7834,48.2453
1991,MN,Lake,27075,-91.4452,47.642
1992,MN,Cook,27031,-90.5344,47.9027
1993,MN,Cass,27021,-94.3254,46.9496
1994,MN,Aitkin,27001,-93.4154,46.6083
1995,MN,Itasca,27061,-93.632,47.5095
1996,MN,Otter Tail,27111,-95.7079,46.4088
1997,MN,Becker,27005,-95.6738,46.9346
1998,MN,Clearwater,27029,-95.379,47.5776
1999,MN,Polk,27119,-96.4018,47.7738
2000,MN,Marshall,27089,-96.3685,48.3581
2001,WI,Douglas,55031,-91.9147,46.4309
2002,WI,Iron,55051,-90.242,46.2623
2003,WI,Bayfield,55007,-91.2006,46.5241
2004,WI,Ashland,55003,-90.6781,46.3148
2005,WI,Marinette,55075,-88.0344,45.383
2006,WI,Oconto,55083,-88.2676,45.0255
2007,WI,Ozaukee,55089,-87.9515,43.3838
2008,MN,Wilkin,27167,-96.4683,46.3571
2009,WI,Sheboygan,55117,-87.9454,43.7212
2010,FL,DeSoto,12027,-81.8093,27.1863
2011,FL,St. Lucie,12111,-80.4836,27.3764
2012,FL,Hendry,12051,-81.1719,26.5473
2013,FL,Hardee,12049,-81.8099,27.4927
2014,FL,Highlands,12055,-81.341,27.3434
2015,FL,Osceola,12097,-81.1496,28.0627
2016,FL,Polk,12105,-81.6978,27.9489
2017,FL,Indian River,12061,-80.6158,27.6929
2018,FL,Okeechobee,12093,-80.9015,27.4283
2019,FL,Glades,12043,-81.2397,26.9605
2020,FL,Martin,12085,-80.3893,27.0844
2021,FL,Mainland Monroe,12087,-81.0326,25.5205
2022,FL,Pinellas,12103,-82.722,27.928
2023,FL,Sarasota,12115,-82.3219,27.181
2024,FL,Sarasota,12115,-82.277,27.0267
2025,FL,Broward,12011,-80.4886,26.1519
2026,FL,Collier,12021,-81.3393,26.1196
2027,FL,Miami-Dade,12086,-80.5682,25.6171
2028,FL,Palm Beach,12099,-80.4329,26.623
2029,AR,Greene,05055,-90.5591,36.1177
2030,AR,Hempstead,05057,-93.6684,33.7354
2031,AR,Hot Spring,05059,-92.946,34.3177
2032,AR,Howard,05061,-93.9935,34.0887
2033,AR,Independence,05063,-91.5698,35.7415
2034,AR,Izard,05065,-91.9134,36.0949
2035,AR,Jackson,05067,-91.2146,35.5994
2036,AR,Jefferson,05069,-91.9315,34.2688
2037,AR,Johnson,05071,-93.4599,35.5701
2038,AR,Lafayette,05073,-93.6073,33.2408
2039,AR,Lawrence,05075,-91.1071,36.0413
2040,AR,Lee,05077,-90.782,34.7807
2041,AR,Lincoln,05079,-91.7333,33.9575
2042,AR,Little River,05081,-94.2343,33.7005
2043,AR,Logan,05083,-93.7163,35.2153
2044,AR,Lonoke,05085,-91.8887,34.7542
2045,AR,Marion,05089,-92.6842,36.2684
2046,AR,Miller,05091,-93.8918,33.3124
2047,AR,Mississippi,05093,-90.054,35.7639
2048,AR,Monroe,05095,-91.2038,34.6778
2049,AR,Montgomery,05097,-93.6595,34.5388
2050,AR,Madison,05087,-93.7246,36.011
2051,AR,Nevada,05099,-93.3072,33.664
2052,AR,Newton,05101,-93.2179,35.92
2053,AR,Ouachita,05103,-92.882,33.5933
2054,AR,Perry,05105,-92.9315,34.9474
2055,AR,Phillips,05107,-90.848,34.4283
2056,AR,Pike,05109,-93.6564,34.1636
2057,AR,Poinsett,05111,-90.6629,35.574
2058,AR,Polk,05113,-94.2281,34.4858
2059,AR,Pope,05115,-93.0342,35.4476
2060,AR,Prairie,05117,-91.5528,34.8297
2061,AR,Pulaski,05119,-92.3117,34.7699
2062,AR,Randolph,05121,-91.0278,36.3415
2063,AR,St. Francis,05123,-90.7478,35.022
2064,AR,Saline,05125,-92.6766,34.6466
2065,AR,Scott,05127,-94.0633,34.8608
2066,AR,Searcy,05129,-92.6995,35.9109
2067,AR,Sebastian,05131,-94.274,35.1993
2068,AR,Sevier,05133,-94.2412,33.9973
2069,AR,Sharp,05135,-91.4799,36.1611
2070,AR,Stone,05137,-92.1567,35.8599
2071,AR,Union,05139,-92.5973,33.1713
2072,AR,Van Buren,05141,-92.5157,35.5807
2073,AR,Washington,05143,-94.2147,35.98
2074,AR,White,05145,-91.7457,35.2563
2075,AR,Woodruff,05147,-91.2432,35.1863
2076,AR,Yell,05149,-93.4113,35.0026
2077,AR,Boone,05009,-93.0915,36.3086
2078,KS,Trego,20195,-99.8729,38.9143
2079,KS,Thomas,20193,-101.0555,39.3509
2080,KS,Sumner,20191,-97.4765,37.2373
2081,KS,Stevens,20189,-101.3121,37.1924
2082,KS,Stanton,20187,-101.7842,37.563
2083,KS,Stafford,20185,-98.7175,38.0311
2084,KS,Smith,20183,-98.7855,39.7851
2085,KS,Sherman,20181,-101.72,39.3515
2086,KS,Sheridan,20179,-100.4418,39.3503
2087,KS,Shawnee,20177,-95.7564,39.0415
2088,KS,Seward,20175,-100.8513,37.1933
2089,KS,Sedgwick,20173,-97.4611,37.6848
2090,KS,Scott,20171,-100.9069,38.4822
2091,KS,Saline,20169,-97.65,38.7839
2092,KS,Russell,20167,-98.7623,38.9149
2093,KS,Rush,20165,-99.3092,38.5233
2094,KS,Rooks,20163,-99.3251,39.3502
2095,KS,Riley,20161,-96.7352,39.2965
2096,KS,Rice,20159,-98.2011,38.3471
2097,KS,Republic,20157,-97.6505,39.8278
2098,KS,Reno,20155,-98.0861,37.9529
2099,KS,Rawlins,20153,-101.0757,39.7852
2100,KS,Pratt,20151,-98.7396,37.6478
2101,KS,Pottawatomie,20149,-96.3425,39.379
2102,KS,Phillips,20147,-99.3469,39.7845
2103,KS,Pawnee,20145,-99.2368,38.1814
2104,KS,Ottawa,20143,-97.6503,39.1326
2105,KS,Osborne,20141,-98.7679,39.3504
2106,KS,Osage,20139,-95.7269,38.6524
2107,KS,Norton,20137,-99.9034,39.7844
2108,KS,Ness,20135,-99.9162,38.4795
2109,KS,Neosho,20133,-95.3068,37.5586
2110,KS,Nemaha,20131,-96.0141,39.7835
2111,KS,Morton,20129,-101.7993,37.1914
2112,KS,Morris,20127,-96.6499,38.6875
2113,KS,Montgomery,20125,-95.7429,37.1925
2114,KS,Mitchell,20123,-98.2095,39.3933
2115,KS,Miami,20121,-94.8381,38.5636
2116,KS,Meade,20119,-100.3662,37.2383
2117,KS,Marshall,20117,-96.5229,39.7836
2118,KS,Marion,20115,-97.0969,38.3588
2119,KS,McPherson,20113,-97.648,38.3916
2120,KS,Lyon,20111,-96.1527,38.4563
2121,KS,Logan,20109,-101.1485,38.9173
2122,KS,Linn,20107,-94.8429,38.2122
2123,KS,Lincoln,20105,-98.2078,39.0453
2124,KS,Leavenworth,20103,-95.0379,39.1993
2125,KS,Lane,20101,-100.4664,38.4814
2126,KS,Labette,20099,-95.2976,37.1913
2127,KS,Kiowa,20097,-99.286,37.5582
2128,KS,Kingman,20095,-98.1364,37.5589
2129,KS,Kearny,20093,-101.3199,38.0002
2130,KS,Johnson,20091,-94.8223,38.8838
2131,KS,Jewell,20089,-98.2184,39.7847
2132,KS,Jefferson,20087,-95.3834,39.2358
2133,KS,Jackson,20085,-95.7937,39.417
2134,KS,Hodgeman,20083,-99.8979,38.0875
2135,KS,Haskell,20081,-100.8712,37.5623
2136,KS,Harvey,20079,-97.4273,38.0432
2137,KS,Harper,20077,-98.0755,37.1916
2138,KS,Hamilton,20075,-101.7913,37.9991
2139,KS,Greenwood,20073,-96.2327,37.8778
2140,KS,Greeley,20071,-101.806,38.4805
2141,KS,Gray,20069,-100.4378,37.7382
2142,KS,Wyandotte,20209,-94.7646,39.1145
2143,KS,Allen,20001,-95.3014,37.8858
2144,KS,Anderson,20003,-95.2933,38.2143
2145,KS,Atchison,20005,-95.3129,39.5319
2146,KS,Barber,20007,-98.6848,37.2289
2147,KS,Barton,20009,-98.7565,38.479
2148,KS,Bourbon,20011,-94.8493,37.8552
2149,KS,Brown,20013,-95.5642,39.8266
2150,KS,Butler,20015,-96.8391,37.7813
2151,KS,Chase,20017,-96.594,38.3021
2152,KS,Chautauqua,20019,-96.2453,37.1501
2153,KS,Cherokee,20021,-94.8462,37.1693
2154,KS,Cheyenne,20023,-101.7311,39.7858
2155,KS,Clark,20025,-99.8203,37.2355
2156,KS,Clay,20027,-97.1651,39.3497
2157,KS,Cloud,20029,-97.6495,39.4804
2158,KS,Coffey,20031,-95.7342,38.237
2159,KS,Comanche,20033,-99.2719,37.1913
2160,KS,Cowley,20035,-96.8375,37.2378
2161,KS,Crawford,20037,-94.8518,37.5073
2162,KS,Decatur,20039,-100.4599,39.7847
2163,KS,Dickinson,20041,-97.1527,38.8664
2164,KS,Doniphan,20043,-95.147,39.7885
2165,KS,Douglas,20045,-95.2924,38.8845
2166,KS,Edwards,20047,-99.312,37.8876
2167,KS,Elk,20049,-96.2441,37.4537
2168,KS,Ellis,20051,-99.3173,38.9148
2169,KS,Ellsworth,20053,-98.2048,38.6966
2170,KS,Finney,20055,-100.7369,38.0444
2171,KS,Ford,20057,-99.8879,37.6917
2172,KS,Franklin,20059,-95.2859,38.5646
2173,KS,Geary,20061,-96.7526,39.0024
2174,KS,Gove,20063,-100.4829,38.916
2175,KS,Graham,20065,-99.8833,39.3497
2176,ND,Williams,38105,-103.4802,48.3437
2177,ND,Adams,38001,-102.5285,46.0969
2178,ND,Barnes,38003,-98.0716,46.9361
2179,ND,Benson,38005,-99.366,48.0694
2180,ND,Billings,38007,-103.3764,47.0234
2181,ND,Bottineau,38009,-100.8335,48.7921
2182,ND,Bowman,38011,-103.5207,46.1126
2183,ND,Burke,38013,-102.5182,48.7909
2184,ND,Burleigh,38015,-100.4688,46.9774
2185,ND,Cass,38017,-97.2481,46.933
2186,ND,Cavalier,38019,-98.465,48.7721
2187,ND,Dickey,38021,-98.5045,46.1102
2188,ND,Ward,38101,-101.5419,48.2218
2189,ND,Wells,38103,-99.661,47.5876
2190,ND,Morton,38059,-101.2811,46.7161
2191,NE,Banner,31007,-103.7104,41.546
2192,NE,Blaine,31009,-99.9769,41.9128
2193,NE,Boone,31011,-98.0673,41.7068
2194,NE,Box Butte,31013,-103.0857,42.2198
2195,NE,Boyd,31015,-98.7665,42.8997
2196,NE,Brown,31017,-99.9295,42.43
2197,NE,Buffalo,31019,-99.075,40.8551
2198,NE,Burt,31021,-96.3287,41.8515
2199,NE,Butler,31023,-97.1306,41.2242
2200,NE,Cass,31025,-96.1408,40.9098
2201,NE,Cedar,31027,-97.2523,42.5993
2202,NE,Chase,31029,-101.6979,40.5242
2203,NE,Cheyenne,31033,-102.995,41.2198
2204,NE,Clay,31035,-98.0512,40.5244
2205,NE,Colfax,31037,-97.0867,41.5731
2206,NE,Cuming,31039,-96.7874,41.9164
2207,NE,Custer,31041,-99.7262,41.3943
2208,NE,Dakota,31043,-96.5646,42.3911
2209,NE,Dawes,31045,-103.1355,42.7197
2210,NE,Dawson,31047,-99.8195,40.8699
2211,NE,Lancaster,31109,-96.6878,40.7841
2212,NE,Lincoln,31111,-100.7452,41.0478
2213,NE,Logan,31113,-100.4829,41.5665
2214,NE,Loup,31115,-99.4544,41.9138
2215,NE,McPherson,31117,-101.0605,41.5681
2216,NE,Madison,31119,-97.6008,41.9167
2217,NE,Merrick,31121,-98.0376,41.1698
2218,NE,Morrill,31123,-103.0105,41.716
2219,NE,Nance,31125,-97.9923,41.3973
2220,NE,Nemaha,31127,-95.8486,40.3881
2221,NE,Nuckolls,31129,-98.0472,40.1764
2222,NE,Otoe,31131,-96.1348,40.6485
2223,NE,Pawnee,31133,-96.237,40.1314
2224,NE,Perkins,31135,-101.6496,40.8509
2225,NE,Phelps,31137,-99.4145,40.5111
2226,NE,Pierce,31139,-97.6013,42.2644
2227,NE,Platte,31141,-97.5198,41.5701
2228,NE,Polk,31143,-97.5684,41.1869
2229,NE,Red Willow,31145,-100.4768,40.1758
2230,NE,Richardson,31147,-95.7167,40.1249
2231,NE,Rock,31149,-99.45,42.4213
2232,NE,Saline,31151,-97.1408,40.524
2233,NE,Sarpy,31153,-96.1119,41.1131
2234,NE,Saunders,31155,-96.6373,41.2261
2235,NE,Scotts Bluff,31157,-103.708,41.8506
2236,NE,Seward,31159,-97.1395,40.8723
2237,NE,Sheridan,31161,-102.409,42.5048
2238,NE,Sherman,31163,-98.9763,41.2205
2239,NE,York,31185,-97.5971,40.8727
2240,NE,Thayer,31169,-97.5947,40.1763
2241,NE,Thomas,31171,-100.5559,41.9135
2242,NE,Thurston,31173,-96.5441,42.1582
2243,NE,Valley,31175,-98.9819,41.5673
2244,NE,Washington,31177,-96.2218,41.5311
2245,NE,Wayne,31179,-97.1193,42.2092
2246,NE,Webster,31181,-98.4999,40.1764
2247,NE,Wheeler,31183,-98.5282,41.9148
2248,NE,Adams,31001,-98.5012,40.5245
2249,NE,Stanton,31167,-97.1939,41.9169
2250,NE,Arthur,31005,-101.6959,41.5689
2251,NE,Antelope,31003,-98.0667,42.177
2252,SD,Tripp,46123,-99.884,43.3459
2253,SD,Todd,46121,-100.7184,43.1934
2254,SD,Sully,46119,-100.1322,44.7155
2255,SD,Spink,46115,-98.3463,44.9381
2256,SD,Oglala Lakota,46102,-102.5516,43.3356
2257,SD,Sanborn,46111,-98.0914,44.0235
2258,SD,Roberts,46109,-96.9461,45.6296
2259,SD,Potter,46107,-99.9573,45.0645
2260,SD,Perkins,46105,-102.4759,45.4904
2261,SD,Moody,46101,-96.671,44.0221
2262,SD,Minnehaha,46099,-96.7914,43.6742
2263,SD,Miner,46097,-97.6102,44.022
2264,SD,Marshall,46091,-97.5986,45.7586
2265,SD,McPherson,46089,-99.2215,45.7664
2266,SD,McCook,46087,-97.3684,43.6743
2267,SD,Lyman,46085,-99.8474,43.8959
2268,SD,Lincoln,46083,-96.7219,43.2789
2269,SD,Lake,46079,-97.1294,44.022
2270,SD,Kingsbury,46077,-97.4915,44.3696
2271,SD,Jerauld,46073,-98.6298,44.0664
2272,SD,Jackson,46071,-101.6281,43.6943
2273,SD,Walworth,46129,-100.0316,45.4299
2274,SD,Yankton,46135,-97.3947,43.009
2275,SD,Ziebach,46137,-101.666,44.9806
2276,LA,Union,22111,-92.3748,32.8319
2277,LA,Tensas,22107,-91.34,32.0016
2278,LA,St. Landry,22097,-92.0058,30.5989
2279,LA,St. James,22093,-90.7962,30.0263
2280,LA,Sabine,22085,-93.5547,31.564
2281,LA,Richland,22083,-91.7636,32.4177
2282,LA,Red River,22081,-93.34,32.0933
2283,LA,Rapides,22079,-92.5332,31.1986
2284,LA,Ouachita,22073,-92.1545,32.4785
2285,LA,Natchitoches,22069,-93.0963,31.7236
2286,LA,Morehouse,22067,-91.8017,32.8205
2287,LA,Lincoln,22061,-92.6647,32.6016
2288,LA,La Salle,22059,-92.1604,31.6767
2289,LA,Lafayette,22055,-92.0639,30.2063
2290,LA,Jackson,22049,-92.5577,32.302
2291,LA,Grant,22043,-92.5594,31.5997
2292,LA,Franklin,22041,-91.6738,32.1333
2293,LA,Evangeline,22039,-92.4059,30.729
2294,LA,East Carroll,22035,-91.235,32.7325
2295,LA,De Soto,22031,-93.7373,32.0554
2296,LA,Concordia,22029,-91.6397,31.4458
2297,LA,Claiborne,22027,-92.9957,32.8226
2298,LA,Catahoula,22025,-91.8471,31.6661
2299,LA,Caldwell,22021,-92.1167,32.0922
2300,LA,Caddo,22017,-93.8821,32.5797
2301,LA,Bossier,22015,-93.6052,32.6795
2302,LA,Bienville,22013,-93.056,32.3472
2303,LA,Beauregard,22011,-93.3434,30.6485
2304,LA,Ascension,22005,-90.9113,30.2035
2305,LA,Allen,22003,-92.8279,30.6528
2306,LA,Acadia,22001,-92.412,30.2906
2307,LA,Madison,22065,-91.2427,32.3643
2308,LA,St. John The Baptist,22095,-90.5462,30.0792
2309,LA,Webster,22119,-93.335,32.7135
2310,LA,West Baton Rouge,22121,-91.3134,30.4634
2311,LA,West Carroll,22123,-91.4567,32.7885
2312,LA,Winn,22127,-92.6368,31.9442
2313,LA,Vernon,22115,-93.1842,31.1083
2314,LA,St. Charles,22089,-90.3631,29.8836
2315,LA,St. Helena,22091,-90.7103,30.822
2316,LA,Pointe Coupee,22077,-91.6009,30.7097
2317,LA,East Feliciana,22037,-91.0455,30.8451
2318,LA,East Baton Rouge,22033,-91.0957,30.5383
2319,LA,Avoyelles,22009,-92.0013,31.0762
2320,LA,Livingston,22063,-90.7393,30.4507
2321,LA,West Feliciana,22125,-91.42,30.8798
2322,FL,Clay,12019,-81.8579,29.9831
2323,FL,Calhoun,12013,-85.1972,30.4061
2324,FL,Bradford,12007,-82.1689,29.9502
2325,FL,Baker,12003,-82.2846,30.331
2326,FL,Alachua,12001,-82.3576,29.6749
2327,FL,Putnam,12107,-81.7442,29.6086
2328,FL,Columbia,12023,-82.6215,30.2243
2329,FL,St. Johns,12109,-81.4439,29.9013
2330,FL,Gilchrist,12041,-82.8006,29.7259
2331,FL,Hamilton,12047,-82.9478,30.4964
2332,FL,Lafayette,12067,-83.1811,29.9855
2333,FL,Leon,12073,-84.2778,30.4581
2334,FL,Suwannee,12121,-82.9915,30.1956
2335,FL,Union,12125,-82.3714,30.0439
2336,FL,Madison,12079,-83.47,30.4442
2337,LA,Calcasieu,22019,-93.3579,30.2292
2338,FL,Marion,12083,-82.0567,29.2103
2339,LA,Jefferson Davis,22053,-92.8138,30.2669
2340,ND,McKenzie,38053,-103.3953,47.7402
2341,ND,Dunn,38025,-102.6183,47.3568
2342,ND,Sioux,38085,-101.0404,46.1127
2343,SD,Stanley,46117,-100.7359,44.4123
2344,LA,Iberville,22047,-91.3494,30.2585
2345,FL,Jackson,12063,-85.2194,30.7956
2346,FL,Jackson,12063,-84.9213,30.78
2347,FL,Flagler,12035,-81.3145,29.4605
2348,FL,Gulf,12045,-85.1435,29.9458
2349,LA,Vermilion,22113,-92.3241,29.8455
2350,LA,Iberia,22045,-91.7307,29.8941
2351,LA,St. Tammany,22103,-89.9401,30.4481
2352,LA,Orleans,22071,-89.9037,30.0385
2353,ND,Richland,38077,-96.9483,46.2646
2354,FL,Holmes,12059,-85.8143,30.8679
2355,ND,Walsh,38099,-97.7214,48.3694
2356,NE,Sioux,31165,-103.7589,42.4877
2357,NE,Cherry,31031,-101.1186,42.5449
2358,SD,Meade,46093,-102.7168,44.5668
2359,SD,Pennington,46103,-102.8238,44.0037
2360,SD,Lawrence,46081,-103.7922,44.3586
2361,SD,Custer,46033,-103.4515,43.6776
2362,SD,Fall River,46047,-103.5276,43.2394
2363,LA,Lafourche,22057,-90.4291,29.5682
2364,LA,Jefferson,22051,-90.1174,29.7299
2365,LA,Plaquemines,22075,-89.6553,29.4705
2366,LA,Assumption,22007,-91.0626,29.9006
2367,LA,St. Martin,22099,-91.6083,30.1291
2368,LA,Terrebonne,22109,-90.8659,29.4206
2369,FL,Okaloosa,12091,-86.5964,30.7068
2370,FL,Santa Rosa,12113,-87.0172,30.732
2371,FL,Escambia,12033,-87.3777,30.7012
2372,FL,Gadsden,12039,-84.6137,30.5795
2373,LA,Cameron,22023,-93.1618,29.8717
2374,FL,Gulf,12045,-85.2283,29.9562
2375,FL,Franklin,12037,-84.8172,29.8773
2376,LA,Washington,22117,-90.0405,30.8533
2377,LA,St. Bernard,22087,-89.6178,29.8628
2378,LA,Tangipahoa,22105,-90.4118,30.6453
2379,FL,Duval,12031,-81.674,30.3302
2380,FL,Nassau,12089,-81.8085,30.6095
2381,FL,Walton,12131,-86.1631,30.6598
2382,FL,Seminole,12117,-81.2362,28.717
2383,FL,Orange,12095,-81.3238,28.5148
2384,FL,Sumter,12119,-82.081,28.7046
2385,FL,Lake,12069,-81.7113,28.7615
2386,FL,Brevard,12009,-80.7436,28.2631
2387,FL,Volusia,12127,-81.1912,29.0604
2388,FL,Lee,12071,-81.821,26.5786
2389,FL,Lee,12071,-81.8902,26.6135
2390,FL,Charlotte,12015,-81.894,26.9069
2391,FL,Charlotte,12015,-82.108,26.9689
2392,FL,Lower Keys in Monroe,12087,-81.5527,24.6514
2393,FL,Middle Keys in Monroe,12087,-80.9876,24.7471
2394,FL,Upper Keys in Monroe,12087,-80.4175,25.1496
2395,FL,Washington,12133,-85.6656,30.6106
2396,FL,Bay,12005,-85.6151,30.2797
2397,FL,Walton,12131,-85.8977,30.5448
2398,TX,Dimmit,48127,-99.7567,28.4225
2399,TX,Duval,48131,-98.5089,27.6813
2400,TX,Hidalgo,48215,-98.1811,26.3968
2401,TX,Jim Hogg,48247,-98.6973,27.0434
2402,TX,Jim Wells,48249,-98.0902,27.7311
2403,TX,La Salle,48283,-99.0997,28.3451
2404,TX,McMullen,48311,-98.5674,28.3491
2405,TX,Starr,48427,-98.7384,26.5621
2406,TX,Webb,48479,-99.3316,27.7611
2407,TX,Zapata,48505,-99.1686,27.0007
2408,TX,Brooks,48047,-98.2187,27.0316
2409,TX,Bee,48025,-97.7412,28.4174
2410,TX,Cameron,48061,-97.5292,26.1293
2411,TX,Kleberg,48273,-97.7344,27.4338
2412,TX,Nueces,48355,-97.6289,27.7232
2413,MT,Jefferson,30043,-112.0937,46.1485
2414,MT,Judith Basin,30045,-110.2661,47.0455
2415,MT,Liberty,30051,-111.0246,48.5617
2416,MT,McCone,30055,-105.7953,47.6452
2417,MT,Madison,30057,-111.9203,45.3008
2418,MT,Meagher,30059,-110.8856,46.5982
2419,MT,Mineral,30061,-114.9985,47.1474
2420,MT,Musselshell,30065,-108.3977,46.4966
2421,MT,Petroleum,30069,-108.2501,47.1175
2422,MT,Powder River,30075,-105.6301,45.395
2423,MT,Prairie,30079,-105.378,46.8605
2424,MT,Richland,30083,-104.5613,47.7879
2425,MT,Sheridan,30091,-104.5046,48.7212
2426,MT,Silver Bow,30093,-112.6567,45.9024
2427,MT,Toole,30101,-111.6957,48.6552
2428,MT,Treasure,30103,-107.2717,46.2115
2429,MT,Wibaux,30109,-104.249,46.9653
2430,MT,Yellowstone,30111,-108.2744,45.9372
2431,NM,Los Alamos,35028,-106.3072,35.8693
2432,OK,Blaine,40011,-98.4335,35.8752
2433,OK,Bryan,40013,-96.26,33.9623
2434,OK,Caddo,40015,-98.3751,35.1744
2435,OK,Canadian,40017,-97.9825,35.5425
2436,OK,Carter,40019,-97.2858,34.2509
2437,OK,Cherokee,40021,-94.9997,35.9066
2438,OK,Choctaw,40023,-95.5521,34.0265
2439,OK,Cimarron,40025,-102.5178,36.7483
2440,OK,Cleveland,40027,-97.3271,35.2036
2441,OK,Coal,40029,-96.2979,34.5882
2442,OK,Comanche,40031,-98.4717,34.6621
2443,OK,Cotton,40033,-98.3721,34.2902
2444,OK,Craig,40035,-95.2086,36.7617
2445,OK,Creek,40037,-96.3709,35.9027
2446,OK,Custer,40039,-99.0015,35.6389
2447,OK,Delaware,40041,-94.8027,36.4082
2448,OK,Dewey,40043,-99.008,35.9877
2449,OK,Ellis,40045,-99.7546,36.2184
2450,OK,Garfield,40047,-97.7828,36.379
2451,OK,Garvin,40049,-97.3093,34.7045
2452,OK,Grady,40051,-97.884,35.017
2453,OK,Grant,40053,-97.7861,36.7961
2454,OK,Greer,40055,-99.5609,34.9357
2455,OK,Harmon,40057,-99.8463,34.7441
2456,OK,Harper,40059,-99.6673,36.7887
2457,OK,Haskell,40061,-95.1166,35.2248
2458,OK,Hughes,40063,-96.2502,35.0484
2459,OK,Jackson,40065,-99.4148,34.588
2460,OK,Jefferson,40067,-97.8359,34.1111
2461,OK,Johnston,40069,-96.6606,34.3165
2462,OK,Kay,40071,-97.1439,36.818
2463,OK,Kingfisher,40073,-97.9421,35.9454
2464,OK,Kiowa,40075,-98.9808,34.9163
2465,OK,Woodward,40153,-99.265,36.4227
2466,OK,Le Flore,40079,-94.7035,34.9001
2467,OK,Lincoln,40081,-96.8809,35.703
2468,OK,Logan,40083,-97.4434,35.9194
2469,OK,Love,40085,-97.2442,33.9499
2470,OK,McClain,40087,-97.4436,35.0087
2471,OK,McCurtain,40089,-94.7712,34.115
2472,OK,McIntosh,40091,-95.6668,35.3737
2473,OK,Major,40093,-98.536,36.3116
2474,OK,Marshall,40095,-96.769,34.0245
2475,OK,Mayes,40097,-95.2309,36.3018
2476,OK,Murray,40099,-97.0679,34.4823
2477,OK,Muskogee,40101,-95.3794,35.6161
2478,OK,Noble,40103,-97.2306,36.3886
2479,OK,Nowata,40105,-95.6174,36.7985
2480,OK,Okfuskee,40107,-96.3228,35.4655
2481,OK,Oklahoma,40109,-97.4072,35.5515
2482,OK,Okmulgee,40111,-95.9643,35.6467
2483,OK,Osage,40113,-96.3984,36.6292
2484,OK,Ottawa,40115,-94.8105,36.8355
2485,OK,Pawnee,40117,-96.6993,36.3169
2486,OK,Payne,40119,-96.9757,36.0773
2487,OK,Pittsburg,40121,-95.7484,34.9239
2488,OK,Pontotoc,40123,-96.6844,34.7281
2489,OK,Pottawatomie,40125,-96.9483,35.2068
2490,OK,Pushmataha,40127,-95.3758,34.4162
2491,OK,Roger Mills,40129,-99.6957,35.6883
2492,OK,Rogers,40131,-95.6044,36.3716
2493,OK,Seminole,40133,-96.6156,35.1674
2494,OK,Sequoyah,40135,-94.7549,35.4953
2495,OK,Stephens,40137,-97.8514,34.4856
2496,OK,Texas,40139,-101.49,36.7479
2497,OK,Tillman,40141,-98.9242,34.3728
2498,OK,Tulsa,40143,-95.9414,36.1211
2499,OK,Wagoner,40145,-95.5212,35.9609
2500,OK,Washington,40147,-95.9044,36.7152
2501,OK,Washita,40149,-98.9923,35.2904
2502,OK,Woods,40151,-98.8651,36.7669
2503,OK,Latimer,40077,-95.2504,34.8761
2504,OK,Adair,40001,-94.6587,35.8839
2505,OK,Alfalfa,40003,-98.324,36.731
2506,OK,Atoka,40005,-96.0378,34.3737
2507,OK,Beaver,40007,-100.4767,36.7497
2508,OK,Beckham,40009,-99.682,35.2687
2509,TX,Crockett,48105,-101.4121,30.723
2510,TX,Crosby,48107,-101.3,33.6146
2511,TX,Dallam,48111,-102.6022,36.2779
2512,TX,Dallas,48113,-96.7779,32.7666
2513,TX,Dawson,48115,-101.9477,32.7425
2514,TX,Deaf Smith,48117,-102.6049,34.966
2515,TX,Delta,48119,-95.6723,33.3863
2516,TX,Denton,48121,-97.1171,33.2043
2517,TX,DeWitt,48123,-97.3568,29.0821
2518,TX,Dickens,48125,-100.7789,33.6166
2519,TX,Donley,48129,-100.814,34.9654
2520,TX,Eastland,48133,-98.8323,32.3271
2521,TX,Ector,48135,-102.5428,31.8692
2522,TX,Edwards,48137,-100.3047,29.9826
2523,TX,Ellis,48139,-96.7945,32.3484
2524,TX,Erath,48143,-98.218,32.2363
2525,TX,Falls,48145,-96.9358,31.2533
2526,TX,Fannin,48147,-96.1066,33.5939
2527,TX,Fayette,48149,-96.9198,29.8768
2528,TX,Fisher,48151,-100.4022,32.7428
2529,TX,Floyd,48153,-101.3032,34.0724
2530,TX,Foard,48155,-99.778,33.9746
2531,TX,Fort Bend,48157,-95.7707,29.5274
2532,TX,Franklin,48159,-95.2184,33.1756
2533,TX,Freestone,48161,-96.149,31.7049
2534,TX,Gaines,48165,-102.6352,32.7407
2535,TX,Garza,48169,-101.2984,33.1799
2536,TX,Gillespie,48171,-98.9464,30.3181
2537,TX,Glasscock,48173,-101.5208,31.8694
2538,TX,Gonzales,48177,-97.4925,29.4567
2539,TX,Gray,48179,-100.8126,35.4012
2540,TX,Grayson,48181,-96.6776,33.6268
2541,TX,Gregg,48183,-94.8172,32.4803
2542,TX,Grimes,48185,-95.9855,30.5436
2543,TX,Guadalupe,48187,-97.9484,29.5831
2544,TX,Hale,48189,-101.8269,34.0705
2545,TX,Hall,48191,-100.6811,34.5308
2546,TX,Hamilton,48193,-98.1107,31.7048
2547,TX,Hansford,48195,-101.3545,36.2775
2548,TX,Hardeman,48197,-99.7457,34.2903
2549,TX,Hardin,48199,-94.3902,30.3324
2550,TX,Harrison,48203,-94.3713,32.5482
2551,TX,Hartley,48205,-102.6029,35.84
2552,TX,Haskell,48207,-99.7303,33.1782
2553,TX,Hays,48209,-98.0311,30.0582
2554,TX,Hemphill,48211,-100.2705,35.8376
2555,TX,Henderson,48213,-95.8538,32.2121
2556,TX,Hill,48217,-97.1324,31.9907
2557,TX,Hockley,48219,-102.3432,33.6076
2558,TX,Hood,48221,-97.8323,32.4299
2559,TX,Hopkins,48223,-95.564,33.1495
2560,TX,Houston,48225,-95.4227,31.3178
2561,TX,Howard,48227,-101.4355,32.3062
2562,TX,Hunt,48231,-96.0854,33.1236
2563,TX,Hutchinson,48233,-101.3547,35.84
2564,TX,Irion,48235,-100.9824,31.3039
2565,TX,Jack,48237,-98.1725,33.2335
2566,TX,Johnson,48251,-97.3663,32.379
2567,TX,Jones,48253,-99.8787,32.7399
2568,TX,Kaufman,48257,-96.2879,32.5996
2569,TX,Kendall,48259,-98.7116,29.9447
2570,TX,Kent,48263,-100.7776,33.1814
2571,TX,Kerr,48265,-99.3501,30.0615
2572,TX,Kimble,48267,-99.7487,30.4868
2573,TX,King,48269,-100.2558,33.6165
2574,TX,Kinney,48271,-100.418,29.3502
2575,TX,Knox,48275,-99.7414,33.6061
2576,TX,Lamar,48277,-95.5711,33.6671
2577,TX,Lamb,48279,-102.3517,34.0686
2578,TX,Lampasas,48281,-98.2414,31.1962
2579,TX,Lavaca,48285,-96.9301,29.3843
2580,TX,Lee,48287,-96.9657,30.3107
2581,TX,Leon,48289,-95.9957,31.2965
2582,TX,Liberty,48291,-94.8122,30.1516
2583,TX,Limestone,48293,-96.5805,31.5455
2584,TX,Lipscomb,48295,-100.2731,36.2777
2585,TX,Llano,48299,-98.684,30.7056
2586,TX,Loving,48301,-103.58,31.8492
2587,TX,Lubbock,48303,-101.8205,33.6102
2588,TX,Lynn,48305,-101.8161,33.1768
2589,TX,McCulloch,48307,-99.3474,31.1989
2590,TX,McLennan,48309,-97.2018,31.5524
2591,TX,Madison,48313,-95.9284,30.9656
2592,TX,Marion,48315,-94.3572,32.798
2593,TX,Martin,48317,-101.9512,32.306
2594,TX,Mason,48319,-99.2261,30.7177
2595,TX,Medina,48325,-99.1101,29.3557
2596,TX,Menard,48327,-99.8206,30.8898
2597,TX,Midland,48329,-102.0316,31.8692
2598,TX,Milam,48331,-96.9769,30.7863
2599,TX,Mills,48333,-98.5955,31.4952
